$GPGGA,110809.000,4308.0399,N,00601.0168,E,1,04,1.8,72.8,M,49.0,M,,0000*64
$GPGGA,110810.000,4308.0406,N,00601.0160,E,1,05,1.3,70.2,M,49.0,M,,0000*67
$GPGGA,110811.000,4308.0406,N,00601.0160,E,1,04,1.8,68.8,M,49.0,M,,0000*6F
$GPGGA,110812.000,4308.0407,N,00601.0159,E,1,05,1.3,68.3,M,49.0,M,,0000*66
$GPGGA,110813.000,4308.0409,N,00601.0154,E,1,05,1.3,66.9,M,49.0,M,,0000*60
$GPGGA,110814.000,4308.0410,N,00601.0150,E,1,05,1.3,65.1,M,49.0,M,,0000*60
$GPGGA,112430.000,4307.9947,N,00601.0020,E,1,07,1.3,24.7,M,49.0,M,,0000*66
$GPGGA,112431.000,4307.9947,N,00601.0020,E,1,07,1.3,24.6,M,49.0,M,,0000*66
$GPGGA,112432.000,4307.9947,N,00601.0020,E,1,07,1.3,24.3,M,49.0,M,,0000*60
$GPGGA,112433.000,4307.9948,N,00601.0020,E,1,07,1.3,23.9,M,49.0,M,,0000*63
$GPGGA,112434.000,4307.9948,N,00601.0020,E,1,07,1.3,23.6,M,49.0,M,,0000*6B
$GPGGA,112435.000,4307.9948,N,00601.0019,E,1,07,1.3,23.5,M,49.0,M,,0000*63
$GPGGA,112436.000,4307.9948,N,00601.0019,E,1,07,1.3,23.2,M,49.0,M,,0000*67
$GPGGA,112437.000,4307.9948,N,00601.0019,E,1,07,1.3,23.1,M,49.0,M,,0000*65
$GPGGA,112438.000,4307.9948,N,00601.0019,E,1,07,1.3,23.0,M,49.0,M,,0000*6B
$GPGGA,112439.000,4307.9948,N,00601.0019,E,1,07,1.3,22.8,M,49.0,M,,0000*63
$GPGGA,112440.000,4307.9949,N,00601.0019,E,1,07,1.3,22.6,M,49.0,M,,0000*62
$GPGGA,112441.000,4307.9949,N,00601.0019,E,1,07,1.3,22.5,M,49.0,M,,0000*60
$GPGGA,112442.000,4307.9949,N,00601.0018,E,1,07,1.3,22.3,M,49.0,M,,0000*64
$GPGGA,112443.000,4307.9949,N,00601.0018,E,1,07,1.3,22.2,M,49.0,M,,0000*64
$GPGGA,112444.000,4307.9949,N,00601.0018,E,1,07,1.3,22.2,M,49.0,M,,0000*63
$GPGGA,112445.000,4307.9949,N,00601.0018,E,1,07,1.3,22.1,M,49.0,M,,0000*61
$GPGGA,112446.000,4307.9949,N,00601.0018,E,1,07,1.3,22.1,M,49.0,M,,0000*62
$GPGGA,112447.000,4307.9949,N,00601.0017,E,1,07,1.3,21.8,M,49.0,M,,0000*66
$GPGGA,112448.000,4307.9950,N,00601.0017,E,1,07,1.3,21.4,M,49.0,M,,0000*6D
$GPGGA,112449.000,4307.9950,N,00601.0017,E,1,07,1.3,21.4,M,49.0,M,,0000*6C
$GPGGA,112450.000,4307.9950,N,00601.0017,E,1,07,1.3,21.2,M,49.0,M,,0000*62
$GPGGA,112451.000,4307.9950,N,00601.0017,E,1,07,1.3,20.9,M,49.0,M,,0000*69
$GPGGA,112452.000,4307.9951,N,00601.0017,E,1,07,1.3,20.5,M,49.0,M,,0000*67
$GPGGA,112453.000,4307.9951,N,00601.0017,E,1,07,1.3,20.5,M,49.0,M,,0000*66
$GPGGA,112454.000,4307.9951,N,00601.0017,E,1,07,1.3,20.2,M,49.0,M,,0000*66
$GPGGA,112455.000,4307.9951,N,00601.0017,E,1,07,1.3,20.1,M,49.0,M,,0000*64
$GPGGA,112456.000,4307.9951,N,00601.0016,E,1,07,1.3,19.9,M,49.0,M,,0000*64
$GPGGA,112457.000,4307.9951,N,00601.0016,E,1,07,1.3,19.8,M,49.0,M,,0000*64
$GPGGA,112458.000,4307.9951,N,00601.0016,E,1,07,1.3,19.8,M,49.0,M,,0000*6B
$GPGGA,112459.000,4307.9953,N,00601.0015,E,1,07,1.3,18.0,M,49.0,M,,0000*62
$GPGGA,112500.000,4307.9953,N,00601.0015,E,1,07,1.3,17.8,M,49.0,M,,0000*68
$GPGGA,112501.000,4307.9960,N,00601.0018,E,1,07,1.3,14.9,M,49.0,M,,0000*66
$GPGGA,112502.000,4307.9966,N,00601.0022,E,1,07,1.3,15.4,M,49.0,M,,0000*66
$GPGGA,112503.000,4307.9974,N,00601.0026,E,1,07,1.3,15.7,M,49.0,M,,0000*63
$GPGGA,112504.000,4307.9982,N,00601.0029,E,1,07,1.3,15.0,M,49.0,M,,0000*65
$GPGGA,112505.000,4307.9985,N,00601.0032,E,1,07,1.3,15.3,M,49.0,M,,0000*6A
$GPGGA,112506.000,4307.9989,N,00601.0035,E,1,07,1.3,15.1,M,49.0,M,,0000*60
$GPGGA,112507.000,4307.9994,N,00601.0036,E,1,07,1.3,14.8,M,49.0,M,,0000*66
$GPGGA,112508.000,4307.9996,N,00601.0035,E,1,07,1.3,14.3,M,49.0,M,,0000*63
$GPGGA,112509.000,4307.9991,N,00601.0038,E,1,06,3.1,14.2,M,49.0,M,,0000*68
$GPGGA,112510.000,4307.9980,N,00601.0044,E,1,07,1.3,14.2,M,49.0,M,,0000*6A
$GPGGA,112511.000,4307.9965,N,00601.0050,E,1,06,3.1,16.0,M,49.0,M,,0000*64
$GPGGA,112512.000,4307.9951,N,00601.0055,E,1,06,3.1,14.8,M,49.0,M,,0000*6F
$GPGGA,112513.000,4307.9938,N,00601.0059,E,1,07,1.3,14.7,M,49.0,M,,0000*63
$GPGGA,112514.000,4307.9926,N,00601.0065,E,1,07,1.3,15.1,M,49.0,M,,0000*63
$GPGGA,112515.000,4307.9914,N,00601.0076,E,1,07,1.3,16.2,M,49.0,M,,0000*61
$GPGGA,112516.000,4307.9902,N,00601.0084,E,1,07,1.3,17.6,M,49.0,M,,0000*6D
$GPGGA,112517.000,4307.9896,N,00601.0092,E,1,07,1.3,19.4,M,49.0,M,,0000*6B
$GPGGA,112518.000,4307.9891,N,00601.0096,E,1,07,1.3,20.5,M,49.0,M,,0000*6C
$GPGGA,112519.000,4307.9890,N,00601.0103,E,1,07,1.3,21.7,M,49.0,M,,0000*62
$GPGGA,112520.000,4307.9889,N,00601.0108,E,1,07,1.3,22.8,M,49.0,M,,0000*67
$GPGGA,112521.000,4307.9889,N,00601.0112,E,1,07,1.3,23.8,M,49.0,M,,0000*6C
$GPGGA,112522.000,4307.9890,N,00601.0113,E,1,07,1.3,24.3,M,49.0,M,,0000*6A
$GPGGA,112523.000,4307.9891,N,00601.0113,E,1,07,1.3,24.6,M,49.0,M,,0000*6F
$GPGGA,112524.000,4307.9891,N,00601.0114,E,1,07,1.3,25.1,M,49.0,M,,0000*69
$GPGGA,112525.000,4307.9891,N,00601.0115,E,1,07,1.3,25.5,M,49.0,M,,0000*6D
$GPGGA,112526.000,4307.9892,N,00601.0116,E,1,07,1.3,25.9,M,49.0,M,,0000*62
$GPGGA,112527.000,4307.9892,N,00601.0118,E,1,07,1.3,26.3,M,49.0,M,,0000*64
$GPGGA,112528.000,4307.9892,N,00601.0119,E,1,07,1.3,26.6,M,49.0,M,,0000*6F
$GPGGA,112529.000,4307.9893,N,00601.0120,E,1,07,1.3,26.8,M,49.0,M,,0000*6B
$GPGGA,112530.000,4307.9893,N,00601.0121,E,1,07,1.3,27.1,M,49.0,M,,0000*6A
$GPGGA,112531.000,4307.9893,N,00601.0122,E,1,07,1.3,27.2,M,49.0,M,,0000*6B
$GPGGA,112532.000,4307.9893,N,00601.0123,E,1,07,1.3,27.4,M,49.0,M,,0000*6F
$GPGGA,112533.000,4307.9893,N,00601.0123,E,1,07,1.3,27.5,M,49.0,M,,0000*6F
$GPGGA,112534.000,4307.9891,N,00601.0125,E,1,07,1.3,27.5,M,49.0,M,,0000*6C
$GPGGA,112535.000,4307.9886,N,00601.0130,E,1,07,1.3,27.3,M,49.0,M,,0000*69
$GPGGA,112536.000,4307.9875,N,00601.0138,E,1,07,1.3,27.1,M,49.0,M,,0000*6C
$GPGGA,112537.000,4307.9860,N,00601.0144,E,1,07,1.3,26.9,M,49.0,M,,0000*6B
$GPGGA,112538.000,4307.9840,N,00601.0144,E,1,07,1.3,26.6,M,49.0,M,,0000*69
$GPGGA,112539.000,4307.9817,N,00601.0135,E,1,07,1.3,26.6,M,49.0,M,,0000*6C
$GPGGA,112540.000,4307.9791,N,00601.0120,E,1,06,1.3,26.2,M,49.0,M,,0000*62
$GPGGA,112541.000,4307.9762,N,00601.0102,E,1,07,1.3,26.2,M,49.0,M,,0000*6E
$GPGGA,112542.000,4307.9731,N,00601.0079,E,1,06,3.1,26.1,M,49.0,M,,0000*64
$GPGGA,112543.000,4307.9698,N,00601.0051,E,1,07,1.3,25.7,M,49.0,M,,0000*69
$GPGGA,112544.000,4307.9662,N,00601.0020,E,1,07,1.3,25.1,M,49.0,M,,0000*6B
$GPGGA,112545.000,4307.9623,N,00600.9985,E,1,07,1.3,24.4,M,49.0,M,,0000*65
$GPGGA,112546.000,4307.9578,N,00600.9949,E,1,07,1.3,24.0,M,49.0,M,,0000*6F
$GPGGA,112547.000,4307.9531,N,00600.9911,E,1,07,1.3,23.6,M,49.0,M,,0000*6F
$GPGGA,112548.000,4307.9482,N,00600.9872,E,1,07,1.3,23.0,M,49.0,M,,0000*6B
$GPGGA,112549.000,4307.9432,N,00600.9834,E,1,07,1.3,22.8,M,49.0,M,,0000*6A
$GPGGA,112550.000,4307.9383,N,00600.9794,E,1,07,1.3,22.4,M,49.0,M,,0000*66
$GPGGA,112551.000,4307.9335,N,00600.9757,E,1,07,1.3,22.1,M,49.0,M,,0000*60
$GPGGA,112552.000,4307.9290,N,00600.9724,E,1,07,1.3,22.1,M,49.0,M,,0000*69
$GPGGA,112553.000,4307.9248,N,00600.9689,E,1,07,1.3,21.8,M,49.0,M,,0000*61
$GPGGA,112554.000,4307.9207,N,00600.9656,E,1,07,1.3,21.7,M,49.0,M,,0000*60
$GPGGA,112555.000,4307.9168,N,00600.9626,E,1,07,1.3,21.6,M,49.0,M,,0000*6D
$GPGGA,112556.000,4307.9130,N,00600.9596,E,1,07,1.3,21.4,M,49.0,M,,0000*69
$GPGGA,112557.000,4307.9093,N,00600.9568,E,1,07,1.3,21.1,M,49.0,M,,0000*64
$GPGGA,112558.000,4307.9058,N,00600.9542,E,1,07,1.3,20.9,M,49.0,M,,0000*6D
$GPGGA,112559.000,4307.9023,N,00600.9517,E,1,07,1.3,20.7,M,49.0,M,,0000*6E
$GPGGA,112600.000,4307.8989,N,00600.9493,E,1,07,1.3,20.4,M,49.0,M,,0000*67
$GPGGA,112601.000,4307.8957,N,00600.9469,E,1,07,1.3,20.1,M,49.0,M,,0000*65
$GPGGA,112602.000,4307.8927,N,00600.9447,E,1,07,1.3,19.7,M,49.0,M,,0000*61
$GPGGA,112603.000,4307.8900,N,00600.9427,E,1,07,1.3,19.4,M,49.0,M,,0000*60
$GPGGA,112604.000,4307.8877,N,00600.9410,E,1,06,1.3,19.2,M,49.0,M,,0000*65
$GPGGA,112605.000,4307.8857,N,00600.9396,E,1,07,1.3,19.0,M,49.0,M,,0000*6C
$GPGGA,112606.000,4307.8840,N,00600.9380,E,1,06,3.1,18.7,M,49.0,M,,0000*69
$GPGGA,112607.000,4307.8827,N,00600.9370,E,1,07,1.3,18.9,M,49.0,M,,0000*69
$GPGGA,112608.000,4307.8820,N,00600.9366,E,1,07,1.3,19.1,M,49.0,M,,0000*6F
$GPGGA,112609.000,4307.8818,N,00600.9363,E,1,07,1.3,19.1,M,49.0,M,,0000*60
$GPGGA,112610.000,4307.8819,N,00600.9359,E,1,07,1.3,18.8,M,49.0,M,,0000*68
$GPGGA,112611.000,4307.8820,N,00600.9356,E,1,07,1.3,18.6,M,49.0,M,,0000*62
$GPGGA,112612.000,4307.8821,N,00600.9357,E,1,07,1.3,18.6,M,49.0,M,,0000*61
$GPGGA,112613.000,4307.8822,N,00600.9356,E,1,07,1.3,18.6,M,49.0,M,,0000*62
$GPGGA,112614.000,4307.8822,N,00600.9357,E,1,07,1.3,18.7,M,49.0,M,,0000*65
$GPGGA,112615.000,4307.8822,N,00600.9363,E,1,06,1.3,19.5,M,49.0,M,,0000*61
$GPGGA,112616.000,4307.8823,N,00600.9362,E,1,07,1.3,19.5,M,49.0,M,,0000*63
$GPGGA,112617.000,4307.8823,N,00600.9364,E,1,07,1.3,19.7,M,49.0,M,,0000*66
$GPGGA,112618.000,4307.8823,N,00600.9365,E,1,07,1.3,19.9,M,49.0,M,,0000*66
$GPGGA,112619.000,4307.8824,N,00600.9367,E,1,07,1.3,20.1,M,49.0,M,,0000*60
$GPGGA,112620.000,4307.8824,N,00600.9367,E,1,07,1.3,20.3,M,49.0,M,,0000*68
$GPGGA,112621.000,4307.8825,N,00600.9369,E,1,07,1.3,20.5,M,49.0,M,,0000*60
$GPGGA,112622.000,4307.8825,N,00600.9370,E,1,07,1.3,20.6,M,49.0,M,,0000*68
$GPGGA,112623.000,4307.8826,N,00600.9372,E,1,07,1.3,20.7,M,49.0,M,,0000*69
$GPGGA,112624.000,4307.8827,N,00600.9373,E,1,07,1.3,20.9,M,49.0,M,,0000*60
$GPGGA,112625.000,4307.8827,N,00600.9375,E,1,07,1.3,21.0,M,49.0,M,,0000*6F
$GPGGA,112626.000,4307.8828,N,00600.9377,E,1,07,1.3,21.2,M,49.0,M,,0000*63
$GPGGA,112627.000,4307.8828,N,00600.9378,E,1,07,1.3,21.3,M,49.0,M,,0000*6C
$GPGGA,112628.000,4307.8829,N,00600.9378,E,1,07,1.3,21.3,M,49.0,M,,0000*62
$GPGGA,112629.000,4307.8829,N,00600.9379,E,1,07,1.3,21.2,M,49.0,M,,0000*63
$GPGGA,112630.000,4307.8830,N,00600.9379,E,1,07,1.3,21.2,M,49.0,M,,0000*63
$GPGGA,112631.000,4307.8831,N,00600.9380,E,1,07,1.3,21.1,M,49.0,M,,0000*66
$GPGGA,112632.000,4307.8831,N,00600.9381,E,1,07,1.3,21.0,M,49.0,M,,0000*65
$GPGGA,112633.000,4307.8832,N,00600.9382,E,1,07,1.3,21.0,M,49.0,M,,0000*64
$GPGGA,112634.000,4307.8832,N,00600.9383,E,1,07,1.3,21.1,M,49.0,M,,0000*63
$GPGGA,112635.000,4307.8833,N,00600.9384,E,1,07,1.3,21.1,M,49.0,M,,0000*64
$GPGGA,112636.000,4307.8833,N,00600.9384,E,1,07,1.3,21.0,M,49.0,M,,0000*66
$GPGGA,112637.000,4307.8833,N,00600.9385,E,1,07,1.3,21.0,M,49.0,M,,0000*66
$GPGGA,112638.000,4307.8833,N,00600.9384,E,1,07,1.3,20.9,M,49.0,M,,0000*60
$GPGGA,112639.000,4307.8829,N,00600.9381,E,1,07,1.3,20.7,M,49.0,M,,0000*61
$GPGGA,112640.000,4307.8817,N,00600.9374,E,1,07,1.3,20.6,M,49.0,M,,0000*69
$GPGGA,112641.000,4307.8796,N,00600.9362,E,1,07,1.3,20.4,M,49.0,M,,0000*6B
$GPGGA,112642.000,4307.8771,N,00600.9345,E,1,07,1.3,20.0,M,49.0,M,,0000*60
$GPGGA,112643.000,4307.8742,N,00600.9325,E,1,07,1.3,20.2,M,49.0,M,,0000*65
$GPGGA,112644.000,4307.8709,N,00600.9300,E,1,07,1.3,20.3,M,49.0,M,,0000*6B
$GPGGA,112645.000,4307.8672,N,00600.9271,E,1,07,1.3,20.4,M,49.0,M,,0000*67
$GPGGA,112646.000,4307.8632,N,00600.9237,E,1,07,1.3,20.4,M,49.0,M,,0000*62
$GPGGA,112647.000,4307.8589,N,00600.9198,E,1,07,1.3,20.1,M,49.0,M,,0000*63
$GPGGA,112648.000,4307.8544,N,00600.9153,E,1,07,1.3,19.8,M,49.0,M,,0000*69
$GPGGA,112649.000,4307.8497,N,00600.9102,E,1,07,1.3,19.5,M,49.0,M,,0000*6E
$GPGGA,112650.000,4307.8449,N,00600.9045,E,1,07,1.3,19.5,M,49.0,M,,0000*67
$GPGGA,112651.000,4307.8401,N,00600.8982,E,1,07,1.3,19.7,M,49.0,M,,0000*6B
$GPGGA,112652.000,4307.8352,N,00600.8914,E,1,07,1.3,18.8,M,49.0,M,,0000*68
$GPGGA,112653.000,4307.8305,N,00600.8845,E,1,07,1.3,18.2,M,49.0,M,,0000*64
$GPGGA,112654.000,4307.8258,N,00600.8776,E,1,07,1.3,17.6,M,49.0,M,,0000*6E
$GPGGA,112655.000,4307.8213,N,00600.8704,E,1,07,1.3,17.0,M,49.0,M,,0000*63
$GPGGA,112656.000,4307.8170,N,00600.8632,E,1,07,1.3,17.6,M,49.0,M,,0000*64
$GPGGA,112657.000,4307.8133,N,00600.8563,E,1,07,1.3,17.4,M,49.0,M,,0000*67
$GPGGA,112658.000,4307.8098,N,00600.8489,E,1,06,3.1,17.3,M,49.0,M,,0000*6B
$GPGGA,112659.000,4307.8062,N,00600.8409,E,1,06,3.1,17.1,M,49.0,M,,0000*65
$GPGGA,112700.000,4307.8028,N,00600.8322,E,1,07,1.3,16.3,M,49.0,M,,0000*6A
$GPGGA,112701.000,4307.7997,N,00600.8232,E,1,07,1.3,15.1,M,49.0,M,,0000*68
$GPGGA,112702.000,4307.7967,N,00600.8142,E,1,07,1.3,14.2,M,49.0,M,,0000*62
$GPGGA,112703.000,4307.7935,N,00600.8056,E,1,07,1.3,14.0,M,49.0,M,,0000*62
$GPGGA,112704.000,4307.7905,N,00600.7974,E,1,08,1.0,14.5,M,49.0,M,,0000*69
$GPGGA,112705.000,4307.7878,N,00600.7895,E,1,08,1.0,15.2,M,49.0,M,,0000*6B
$GPGGA,112706.000,4307.7859,N,00600.7815,E,1,07,1.2,13.3,M,49.0,M,,0000*69
$GPGGA,112707.000,4307.7842,N,00600.7736,E,1,07,1.2,11.5,M,49.0,M,,0000*68
$GPGGA,112708.000,4307.7823,N,00600.7656,E,1,07,1.2,11.7,M,49.0,M,,0000*65
$GPGGA,112709.000,4307.7805,N,00600.7579,E,1,06,1.3,10.5,M,49.0,M,,0000*6D
$GPGGA,112710.000,4307.7783,N,00600.7509,E,1,06,1.3,10.8,M,49.0,M,,0000*6E
$GPGGA,112711.000,4307.7767,N,00600.7439,E,1,08,1.0,10.7,M,49.0,M,,0000*65
$GPGGA,112712.000,4307.7748,N,00600.7377,E,1,08,1.0,10.7,M,49.0,M,,0000*66
$GPGGA,112713.000,4307.7728,N,00600.7316,E,1,08,1.0,11.1,M,49.0,M,,0000*61
$GPGGA,112714.000,4307.7711,N,00600.7265,E,1,08,1.0,11.3,M,49.0,M,,0000*6B
$GPGGA,112715.000,4307.7696,N,00600.7224,E,1,08,1.0,11.6,M,49.0,M,,0000*64
$GPGGA,112716.000,4307.7678,N,00600.7191,E,1,08,1.0,12.3,M,49.0,M,,0000*6C
$GPGGA,112717.000,4307.7666,N,00600.7160,E,1,08,1.0,12.9,M,49.0,M,,0000*66
$GPGGA,112718.000,4307.7657,N,00600.7139,E,1,08,1.0,13.4,M,49.0,M,,0000*6B
$GPGGA,112719.000,4307.7654,N,00600.7127,E,1,08,1.0,14.0,M,49.0,M,,0000*65
$GPGGA,112720.000,4307.7656,N,00600.7125,E,1,08,1.0,15.0,M,49.0,M,,0000*6E
$GPGGA,112721.000,4307.7656,N,00600.7130,E,1,08,1.0,14.5,M,49.0,M,,0000*6F
$GPGGA,112722.000,4307.7655,N,00600.7132,E,1,08,1.0,15.2,M,49.0,M,,0000*6B
$GPGGA,112723.000,4307.7654,N,00600.7132,E,1,08,1.0,16.2,M,49.0,M,,0000*68
$GPGGA,112724.000,4307.7654,N,00600.7133,E,1,08,1.0,17.2,M,49.0,M,,0000*6F
$GPGGA,112725.000,4307.7655,N,00600.7132,E,1,07,1.4,17.9,M,49.0,M,,0000*6E
$GPGGA,112726.000,4307.7660,N,00600.7125,E,1,07,1.4,17.2,M,49.0,M,,0000*66
$GPGGA,112727.000,4307.7660,N,00600.7114,E,1,07,1.4,17.3,M,49.0,M,,0000*64
$GPGGA,112728.000,4307.7656,N,00600.7094,E,1,07,1.4,17.4,M,49.0,M,,0000*60
$GPGGA,112729.000,4307.7661,N,00600.7064,E,1,08,1.0,16.4,M,49.0,M,,0000*60
$GPGGA,112730.000,4307.7680,N,00600.7026,E,1,08,1.0,17.4,M,49.0,M,,0000*60
$GPGGA,112731.000,4307.7704,N,00600.6997,E,1,08,1.0,17.5,M,49.0,M,,0000*6F
$GPGGA,112732.000,4307.7736,N,00600.6975,E,1,07,1.1,18.0,M,49.0,M,,0000*65
$GPGGA,112733.000,4307.7774,N,00600.6954,E,1,08,1.0,18.2,M,49.0,M,,0000*6D
$GPGGA,112734.000,4307.7813,N,00600.6933,E,1,08,1.0,18.3,M,49.0,M,,0000*64
$GPGGA,112735.000,4307.7852,N,00600.6918,E,1,08,1.0,17.0,M,49.0,M,,0000*65
$GPGGA,112736.000,4307.7884,N,00600.6901,E,1,08,1.0,17.3,M,49.0,M,,0000*66
$GPGGA,112737.000,4307.7914,N,00600.6893,E,1,07,1.3,17.8,M,49.0,M,,0000*62
$GPGGA,112738.000,4307.7940,N,00600.6901,E,1,08,1.0,16.4,M,49.0,M,,0000*67
$GPGGA,112739.000,4307.7964,N,00600.6913,E,1,05,4.5,15.7,M,49.0,M,,0000*6E
$GPGGA,112740.000,4307.7991,N,00600.6927,E,1,07,1.4,16.2,M,49.0,M,,0000*6D
$GPGGA,112741.000,4307.8004,N,00600.6963,E,1,08,1.0,15.9,M,49.0,M,,0000*65
$GPGGA,112742.000,4307.8016,N,00600.7040,E,1,08,1.0,15.6,M,49.0,M,,0000*63
$GPGGA,112743.000,4307.8033,N,00600.7084,E,1,08,1.0,15.5,M,49.0,M,,0000*6E
$GPGGA,112744.000,4307.8053,N,00600.7127,E,1,08,1.0,16.0,M,49.0,M,,0000*61
$GPGGA,112745.000,4307.8070,N,00600.7164,E,1,08,1.0,16.2,M,49.0,M,,0000*64
$GPGGA,112746.000,4307.8085,N,00600.7200,E,1,08,1.0,16.2,M,49.0,M,,0000*6C
$GPGGA,112747.000,4307.8099,N,00600.7235,E,1,08,1.0,16.0,M,49.0,M,,0000*64
$GPGGA,112748.000,4307.8110,N,00600.7272,E,1,08,1.0,15.9,M,49.0,M,,0000*62
$GPGGA,112749.000,4307.8121,N,00600.7310,E,1,07,1.3,16.1,M,49.0,M,,0000*63
$GPGGA,112750.000,4307.8126,N,00600.7337,E,1,08,1.0,16.8,M,49.0,M,,0000*6C
$GPGGA,112751.000,4307.8129,N,00600.7356,E,1,08,1.0,17.5,M,49.0,M,,0000*69
$GPGGA,112752.000,4307.8126,N,00600.7363,E,1,08,1.0,17.6,M,49.0,M,,0000*60
$GPGGA,112753.000,4307.8125,N,00600.7369,E,1,08,1.0,18.0,M,49.0,M,,0000*61
$GPGGA,112754.000,4307.8119,N,00600.7372,E,1,08,1.0,18.2,M,49.0,M,,0000*61
$GPGGA,112755.000,4307.8117,N,00600.7372,E,1,08,1.0,16.7,M,49.0,M,,0000*65
$GPGGA,112756.000,4307.8118,N,00600.7371,E,1,07,1.1,13.7,M,49.0,M,,0000*61
$GPGGA,112757.000,4307.8112,N,00600.7368,E,1,07,1.1,15.3,M,49.0,M,,0000*60
$GPGGA,112758.000,4307.8107,N,00600.7367,E,1,07,1.1,16.7,M,49.0,M,,0000*63
$GPGGA,112759.000,4307.8106,N,00600.7368,E,1,07,1.1,17.8,M,49.0,M,,0000*62
$GPGGA,112800.000,4307.8105,N,00600.7369,E,1,07,1.1,18.9,M,49.0,M,,0000*6D
$GPGGA,112801.000,4307.8103,N,00600.7370,E,1,06,1.1,20.4,M,49.0,M,,0000*65
$GPGGA,112802.000,4307.8102,N,00600.7373,E,1,06,1.1,22.4,M,49.0,M,,0000*66
$GPGGA,112803.000,4307.8102,N,00600.7370,E,1,06,1.1,22.1,M,49.0,M,,0000*61
$GPGGA,112804.000,4307.8099,N,00600.7364,E,1,06,1.1,22.5,M,49.0,M,,0000*64
$GPGGA,112805.000,4307.8095,N,00600.7360,E,1,06,1.1,24.0,M,49.0,M,,0000*6E
$GPGGA,112806.000,4307.8093,N,00600.7361,E,1,06,1.1,26.2,M,49.0,M,,0000*6A
$GPGGA,112807.000,4307.8093,N,00600.7360,E,1,07,1.1,26.7,M,49.0,M,,0000*6E
$GPGGA,112808.000,4307.8089,N,00600.7353,E,1,07,1.1,27.6,M,49.0,M,,0000*6A
$GPGGA,112809.000,4307.8089,N,00600.7349,E,1,07,1.1,27.1,M,49.0,M,,0000*67
$GPGGA,112810.000,4307.8089,N,00600.7346,E,1,07,1.1,27.2,M,49.0,M,,0000*63
$GPGGA,112811.000,4307.8092,N,00600.7349,E,1,07,1.1,26.9,M,49.0,M,,0000*6D
$GPGGA,112812.000,4307.8092,N,00600.7348,E,1,07,1.1,27.4,M,49.0,M,,0000*63
$GPGGA,112813.000,4307.8089,N,00600.7344,E,1,07,1.1,27.6,M,49.0,M,,0000*66
$GPGGA,112814.000,4307.8086,N,00600.7340,E,1,07,1.1,28.6,M,49.0,M,,0000*65
$GPGGA,112815.000,4307.8086,N,00600.7337,E,1,07,1.1,27.7,M,49.0,M,,0000*6A
$GPGGA,112816.000,4307.8086,N,00600.7334,E,1,07,1.1,27.4,M,49.0,M,,0000*69
$GPGGA,112817.000,4307.8085,N,00600.7333,E,1,07,1.1,26.9,M,49.0,M,,0000*60
$GPGGA,112818.000,4307.8084,N,00600.7330,E,1,07,1.1,26.6,M,49.0,M,,0000*62
$GPGGA,112819.000,4307.8082,N,00600.7327,E,1,07,1.1,26.5,M,49.0,M,,0000*60
$GPGGA,112820.000,4307.8080,N,00600.7324,E,1,07,1.1,26.5,M,49.0,M,,0000*6B
$GPGGA,112821.000,4307.8078,N,00600.7320,E,1,07,1.1,26.4,M,49.0,M,,0000*68
$GPGGA,112822.000,4307.8076,N,00600.7317,E,1,06,1.3,26.4,M,49.0,M,,0000*62
$GPGGA,112823.000,4307.8075,N,00600.7315,E,1,06,1.3,26.6,M,49.0,M,,0000*60
$GPGGA,112824.000,4307.8074,N,00600.7312,E,1,06,1.3,26.5,M,49.0,M,,0000*62
$GPGGA,112825.000,4307.8075,N,00600.7305,E,1,06,1.3,26.3,M,49.0,M,,0000*62
$GPGGA,112826.000,4307.8076,N,00600.7299,E,1,06,1.3,26.1,M,49.0,M,,0000*64
$GPGGA,112827.000,4307.8079,N,00600.7288,E,1,07,1.3,25.7,M,49.0,M,,0000*6E
$GPGGA,112828.000,4307.8078,N,00600.7287,E,1,08,1.0,27.0,M,49.0,M,,0000*66
$GPGGA,112829.000,4307.8077,N,00600.7287,E,1,08,1.0,26.2,M,49.0,M,,0000*6B
$GPGGA,112830.000,4307.8075,N,00600.7287,E,1,08,1.0,26.8,M,49.0,M,,0000*6B
$GPGGA,112831.000,4307.8075,N,00600.7289,E,1,08,1.0,26.3,M,49.0,M,,0000*6F
$GPGGA,112832.000,4307.8075,N,00600.7291,E,1,08,1.0,25.5,M,49.0,M,,0000*60
$GPGGA,112833.000,4307.8074,N,00600.7293,E,1,08,1.0,24.4,M,49.0,M,,0000*62
$GPGGA,112834.000,4307.8073,N,00600.7295,E,1,08,1.0,23.5,M,49.0,M,,0000*62
$GPGGA,112835.000,4307.8073,N,00600.7297,E,1,08,1.0,22.6,M,49.0,M,,0000*63
$GPGGA,112836.000,4307.8073,N,00600.7299,E,1,08,1.0,21.7,M,49.0,M,,0000*6C
$GPGGA,112837.000,4307.8072,N,00600.7300,E,1,08,1.0,20.8,M,49.0,M,,0000*63
$GPGGA,112838.000,4307.8071,N,00600.7301,E,1,08,1.0,20.0,M,49.0,M,,0000*66
$GPGGA,112839.000,4307.8071,N,00600.7302,E,1,08,1.0,19.2,M,49.0,M,,0000*6C
$GPGGA,112840.000,4307.8070,N,00600.7304,E,1,08,1.0,18.3,M,49.0,M,,0000*65
$GPGGA,112841.000,4307.8070,N,00600.7307,E,1,08,1.0,17.4,M,49.0,M,,0000*6F
$GPGGA,112842.000,4307.8069,N,00600.7309,E,1,08,1.0,16.6,M,49.0,M,,0000*69
$GPGGA,112843.000,4307.8069,N,00600.7310,E,1,08,1.0,16.0,M,49.0,M,,0000*66
$GPGGA,112844.000,4307.8069,N,00600.7314,E,1,08,1.0,15.2,M,49.0,M,,0000*64
$GPGGA,112845.000,4307.8073,N,00600.7322,E,1,08,1.0,14.0,M,49.0,M,,0000*68
$GPGGA,112846.000,4307.8075,N,00600.7328,E,1,08,1.0,13.5,M,49.0,M,,0000*65
$GPGGA,112847.000,4307.8081,N,00600.7339,E,1,08,1.0,12.2,M,49.0,M,,0000*69
$GPGGA,112848.000,4307.8085,N,00600.7347,E,1,08,1.0,11.0,M,49.0,M,,0000*6A
$GPGGA,112849.000,4307.8088,N,00600.7354,E,1,08,1.0,10.0,M,49.0,M,,0000*65
$GPGGA,112850.000,4307.8090,N,00600.7360,E,1,08,1.0,9.3,M,49.0,M,,0000*58
$GPGGA,112851.000,4307.8091,N,00600.7363,E,1,07,1.1,8.6,M,49.0,M,,0000*51
$GPGGA,112852.000,4307.8091,N,00600.7365,E,1,07,1.1,8.1,M,49.0,M,,0000*53
$GPGGA,112853.000,4307.8094,N,00600.7371,E,1,07,1.1,7.3,M,49.0,M,,0000*5F
$GPGGA,112854.000,4307.8097,N,00600.7378,E,1,08,1.0,6.5,M,49.0,M,,0000*5B
$GPGGA,112855.000,4307.8100,N,00600.7386,E,1,08,1.0,5.6,M,49.0,M,,0000*54
$GPGGA,112856.000,4307.8102,N,00600.7391,E,1,08,1.0,4.7,M,49.0,M,,0000*53
$GPGGA,112857.000,4307.8103,N,00600.7395,E,1,08,1.0,3.9,M,49.0,M,,0000*5E
$GPGGA,112858.000,4307.8106,N,00600.7402,E,1,08,1.0,3.0,M,49.0,M,,0000*54
$GPGGA,112859.000,4307.8108,N,00600.7407,E,1,09,0.9,2.8,M,49.0,M,,0000*5E
$GPGGA,112900.000,4307.8108,N,00600.7409,E,1,09,0.9,2.1,M,49.0,M,,0000*54
$GPGGA,112901.000,4307.8108,N,00600.7411,E,1,09,0.9,1.8,M,49.0,M,,0000*56
$GPGGA,112902.000,4307.8110,N,00600.7414,E,1,08,0.9,1.1,M,49.0,M,,0000*51
$GPGGA,112903.000,4307.8111,N,00600.7414,E,1,08,0.9,1.1,M,49.0,M,,0000*51
$GPGGA,112904.000,4307.8111,N,00600.7416,E,1,08,0.9,0.8,M,49.0,M,,0000*5C
$GPGGA,112905.000,4307.8112,N,00600.7418,E,1,09,0.9,0.3,M,49.0,M,,0000*5A
$GPGGA,112906.000,4307.8112,N,00600.7421,E,1,09,0.9,-0.1,M,49.0,M,,0000*7C
$GPGGA,112907.000,4307.8111,N,00600.7421,E,1,09,0.9,-0.2,M,49.0,M,,0000*7D
$GPGGA,112908.000,4307.8112,N,00600.7417,E,1,09,0.9,0.6,M,49.0,M,,0000*5D
$GPGGA,112909.000,4307.8111,N,00600.7414,E,1,09,0.9,0.9,M,49.0,M,,0000*53
$GPGGA,112910.000,4307.8110,N,00600.7413,E,1,09,0.9,1.0,M,49.0,M,,0000*55
$GPGGA,112911.000,4307.8109,N,00600.7415,E,1,08,1.0,0.4,M,49.0,M,,0000*56
$GPGGA,112912.000,4307.8110,N,00600.7415,E,1,08,1.0,-1.4,M,49.0,M,,0000*71
$GPGGA,112913.000,4307.8109,N,00600.7415,E,1,08,1.0,-1.5,M,49.0,M,,0000*79
$GPGGA,112914.000,4307.8108,N,00600.7416,E,1,07,1.2,-2.9,M,49.0,M,,0000*7E
$GPGGA,112915.000,4307.8110,N,00600.7413,E,1,08,1.0,-1.2,M,49.0,M,,0000*76
$GPGGA,112916.000,4307.8109,N,00600.7416,E,1,08,1.0,-0.5,M,49.0,M,,0000*7E
$GPGGA,112917.000,4307.8104,N,00600.7425,E,1,09,0.9,0.0,M,49.0,M,,0000*53
$GPGGA,112918.000,4307.8100,N,00600.7437,E,1,09,0.9,1.6,M,49.0,M,,0000*5C
$GPGGA,112919.000,4307.8098,N,00600.7451,E,1,09,0.9,3.6,M,49.0,M,,0000*5F
$GPGGA,112920.000,4307.8101,N,00600.7468,E,1,09,0.9,5.3,M,49.0,M,,0000*5D
$GPGGA,112921.000,4307.8107,N,00600.7484,E,1,09,0.9,7.4,M,49.0,M,,0000*5D
$GPGGA,112922.000,4307.8105,N,00600.7495,E,1,09,0.9,9.1,M,49.0,M,,0000*57
$GPGGA,112923.000,4307.8100,N,00600.7502,E,1,09,0.9,10.6,M,49.0,M,,0000*63
$GPGGA,112924.000,4307.8097,N,00600.7502,E,1,09,0.9,11.8,M,49.0,M,,0000*64
$GPGGA,112925.000,4307.8095,N,00600.7501,E,1,09,0.9,12.6,M,49.0,M,,0000*69
$GPGGA,112926.000,4307.8094,N,00600.7500,E,1,09,0.9,13.3,M,49.0,M,,0000*6E
$GPGGA,112927.000,4307.8094,N,00600.7499,E,1,09,0.9,13.9,M,49.0,M,,0000*64
$GPGGA,112928.000,4307.8093,N,00600.7499,E,1,09,0.9,14.4,M,49.0,M,,0000*66
$GPGGA,112929.000,4307.8093,N,00600.7498,E,1,09,0.9,15.0,M,49.0,M,,0000*63
$GPGGA,112930.000,4307.8093,N,00600.7498,E,1,09,0.9,15.8,M,49.0,M,,0000*63
$GPGGA,112931.000,4307.8093,N,00600.7498,E,1,09,0.9,16.5,M,49.0,M,,0000*6C
$GPGGA,112932.000,4307.8092,N,00600.7498,E,1,09,0.9,17.1,M,49.0,M,,0000*6B
$GPGGA,112933.000,4307.8092,N,00600.7497,E,1,09,0.9,17.6,M,49.0,M,,0000*62
$GPGGA,112934.000,4307.8092,N,00600.7496,E,1,09,0.9,18.1,M,49.0,M,,0000*6C
$GPGGA,112935.000,4307.8091,N,00600.7495,E,1,09,0.9,18.6,M,49.0,M,,0000*6A
$GPGGA,112936.000,4307.8091,N,00600.7495,E,1,09,0.9,19.1,M,49.0,M,,0000*6F
$GPGGA,112937.000,4307.8091,N,00600.7495,E,1,09,0.9,19.5,M,49.0,M,,0000*6A
$GPGGA,112938.000,4307.8091,N,00600.7494,E,1,09,0.9,19.9,M,49.0,M,,0000*68
$GPGGA,112939.000,4307.8091,N,00600.7494,E,1,09,0.9,20.3,M,49.0,M,,0000*69
$GPGGA,112940.000,4307.8090,N,00600.7494,E,1,09,0.9,20.6,M,49.0,M,,0000*63
$GPGGA,112941.000,4307.8090,N,00600.7493,E,1,09,0.9,20.9,M,49.0,M,,0000*6A
$GPGGA,112942.000,4307.8090,N,00600.7493,E,1,09,0.9,21.1,M,49.0,M,,0000*60
$GPGGA,112943.000,4307.8089,N,00600.7492,E,1,09,0.9,21.2,M,49.0,M,,0000*6B
$GPGGA,112944.000,4307.8089,N,00600.7492,E,1,09,0.9,21.5,M,49.0,M,,0000*6B
$GPGGA,112945.000,4307.8089,N,00600.7492,E,1,09,0.9,21.7,M,49.0,M,,0000*68
$GPGGA,112946.000,4307.8089,N,00600.7492,E,1,09,0.9,21.7,M,49.0,M,,0000*6B
$GPGGA,112947.000,4307.8088,N,00600.7491,E,1,09,0.9,21.8,M,49.0,M,,0000*67
$GPGGA,112948.000,4307.8088,N,00600.7491,E,1,09,0.9,21.9,M,49.0,M,,0000*69
$GPGGA,112949.000,4307.8088,N,00600.7491,E,1,09,0.9,22.0,M,49.0,M,,0000*62
$GPGGA,112950.000,4307.8088,N,00600.7490,E,1,09,0.9,22.0,M,49.0,M,,0000*6B
$GPGGA,112951.000,4307.8087,N,00600.7490,E,1,09,0.9,22.1,M,49.0,M,,0000*64
$GPGGA,112952.000,4307.8087,N,00600.7490,E,1,09,0.9,22.2,M,49.0,M,,0000*64
$GPGGA,112953.000,4307.8087,N,00600.7490,E,1,09,0.9,22.5,M,49.0,M,,0000*62
$GPGGA,112954.000,4307.8087,N,00600.7490,E,1,09,0.9,22.6,M,49.0,M,,0000*66
$GPGGA,112955.000,4307.8087,N,00600.7490,E,1,09,0.9,22.7,M,49.0,M,,0000*66
$GPGGA,112956.000,4307.8086,N,00600.7491,E,1,09,0.9,22.8,M,49.0,M,,0000*6A
$GPGGA,112957.000,4307.8082,N,00600.7492,E,1,08,1.1,22.4,M,49.0,M,,0000*68
$GPGGA,112958.000,4307.8077,N,00600.7497,E,1,08,1.1,22.3,M,49.0,M,,0000*6F
$GPGGA,112959.000,4307.8073,N,00600.7503,E,1,08,0.9,22.2,M,49.0,M,,0000*6E
$GPGGA,113000.000,4307.8069,N,00600.7508,E,1,09,0.9,22.3,M,49.0,M,,0000*6A
$GPGGA,113001.000,4307.8067,N,00600.7512,E,1,09,0.9,22.5,M,49.0,M,,0000*68
$GPGGA,113002.000,4307.8066,N,00600.7514,E,1,09,0.9,22.6,M,49.0,M,,0000*6F
$GPGGA,113003.000,4307.8065,N,00600.7515,E,1,09,0.9,22.7,M,49.0,M,,0000*6D
$GPGGA,113004.000,4307.8065,N,00600.7516,E,1,09,0.9,23.5,M,49.0,M,,0000*6A
$GPGGA,113005.000,4307.8063,N,00600.7516,E,1,09,0.9,23.3,M,49.0,M,,0000*6B
$GPGGA,113006.000,4307.8063,N,00600.7517,E,1,09,0.9,23.4,M,49.0,M,,0000*6E
$GPGGA,113007.000,4307.8062,N,00600.7518,E,1,09,0.9,23.5,M,49.0,M,,0000*60
$GPGGA,113008.000,4307.8062,N,00600.7517,E,1,09,0.9,23.9,M,49.0,M,,0000*6C
$GPGGA,113009.000,4307.8060,N,00600.7518,E,1,09,0.9,24.1,M,49.0,M,,0000*6F
$GPGGA,113010.000,4307.8059,N,00600.7518,E,1,09,0.9,24.1,M,49.0,M,,0000*6D
$GPGGA,113011.000,4307.8059,N,00600.7519,E,1,09,0.9,24.2,M,49.0,M,,0000*6E
$GPGGA,113012.000,4307.8056,N,00600.7521,E,1,08,0.9,24.4,M,49.0,M,,0000*6E
$GPGGA,113013.000,4307.8050,N,00600.7525,E,1,09,0.9,24.5,M,49.0,M,,0000*6D
$GPGGA,113014.000,4307.8037,N,00600.7528,E,1,09,0.9,25.4,M,49.0,M,,0000*66
$GPGGA,113015.000,4307.8018,N,00600.7534,E,1,09,0.9,25.0,M,49.0,M,,0000*63
$GPGGA,113016.000,4307.7996,N,00600.7538,E,1,09,0.9,24.6,M,49.0,M,,0000*6B
$GPGGA,113017.000,4307.7974,N,00600.7539,E,1,09,0.9,24.2,M,49.0,M,,0000*63
$GPGGA,113018.000,4307.7955,N,00600.7542,E,1,09,0.9,23.5,M,49.0,M,,0000*63
$GPGGA,113019.000,4307.7941,N,00600.7547,E,1,09,0.9,22.3,M,49.0,M,,0000*65
$GPGGA,113020.000,4307.7929,N,00600.7552,E,1,09,0.9,22.3,M,49.0,M,,0000*65
$GPGGA,113021.000,4307.7921,N,00600.7557,E,1,09,0.9,22.4,M,49.0,M,,0000*6E
$GPGGA,113022.000,4307.7913,N,00600.7562,E,1,09,0.9,22.3,M,49.0,M,,0000*6D
$GPGGA,113023.000,4307.7906,N,00600.7567,E,1,09,0.9,22.3,M,49.0,M,,0000*6D
$GPGGA,113024.000,4307.7896,N,00600.7571,E,1,09,0.9,22.2,M,49.0,M,,0000*64
$GPGGA,113025.000,4307.7887,N,00600.7575,E,1,09,0.9,22.1,M,49.0,M,,0000*62
$GPGGA,113026.000,4307.7880,N,00600.7578,E,1,09,0.9,22.1,M,49.0,M,,0000*6B
$GPGGA,113027.000,4307.7874,N,00600.7579,E,1,09,0.9,22.2,M,49.0,M,,0000*63
$GPGGA,113028.000,4307.7870,N,00600.7580,E,1,09,0.9,22.4,M,49.0,M,,0000*68
$GPGGA,113029.000,4307.7866,N,00600.7581,E,1,09,0.9,22.6,M,49.0,M,,0000*6D
$GPGGA,113030.000,4307.7864,N,00600.7581,E,1,09,0.9,22.7,M,49.0,M,,0000*66
$GPGGA,113031.000,4307.7861,N,00600.7582,E,1,09,0.9,22.7,M,49.0,M,,0000*61
$GPGGA,113032.000,4307.7859,N,00600.7582,E,1,09,0.9,22.6,M,49.0,M,,0000*68
$GPGGA,113033.000,4307.7857,N,00600.7582,E,1,09,0.9,22.3,M,49.0,M,,0000*62
$GPGGA,113034.000,4307.7854,N,00600.7582,E,1,09,0.9,22.3,M,49.0,M,,0000*66
$GPGGA,113035.000,4307.7850,N,00600.7583,E,1,09,0.9,22.1,M,49.0,M,,0000*60
$GPGGA,113036.000,4307.7844,N,00600.7582,E,1,09,0.9,21.4,M,49.0,M,,0000*61
$GPGGA,113037.000,4307.7836,N,00600.7582,E,1,09,0.9,21.2,M,49.0,M,,0000*63
$GPGGA,113038.000,4307.7829,N,00600.7582,E,1,08,1.0,21.0,M,49.0,M,,0000*69
$GPGGA,113039.000,4307.7823,N,00600.7581,E,1,09,0.9,20.8,M,49.0,M,,0000*61
$GPGGA,113040.000,4307.7818,N,00600.7580,E,1,09,0.9,21.2,M,49.0,M,,0000*6D
$GPGGA,113041.000,4307.7809,N,00600.7577,E,1,09,0.9,21.3,M,49.0,M,,0000*65
$GPGGA,113042.000,4307.7796,N,00600.7565,E,1,09,0.9,21.1,M,49.0,M,,0000*6E
$GPGGA,113043.000,4307.7783,N,00600.7546,E,1,09,0.9,21.1,M,49.0,M,,0000*6A
$GPGGA,113044.000,4307.7772,N,00600.7515,E,1,08,1.0,21.1,M,49.0,M,,0000*6C
$GPGGA,113045.000,4307.7763,N,00600.7477,E,1,09,0.9,20.6,M,49.0,M,,0000*67
$GPGGA,113046.000,4307.7753,N,00600.7434,E,1,09,0.9,20.5,M,49.0,M,,0000*63
$GPGGA,113047.000,4307.7742,N,00600.7387,E,1,09,0.9,20.7,M,49.0,M,,0000*6F
$GPGGA,113048.000,4307.7729,N,00600.7339,E,1,09,0.9,20.8,M,49.0,M,,0000*67
$GPGGA,113049.000,4307.7714,N,00600.7291,E,1,09,0.9,21.4,M,49.0,M,,0000*66
$GPGGA,113050.000,4307.7698,N,00600.7246,E,1,09,0.9,21.8,M,49.0,M,,0000*6D
$GPGGA,113051.000,4307.7684,N,00600.7207,E,1,09,0.9,22.0,M,49.0,M,,0000*6F
$GPGGA,113052.000,4307.7671,N,00600.7170,E,1,09,0.9,22.3,M,49.0,M,,0000*66
$GPGGA,113053.000,4307.7662,N,00600.7139,E,1,09,0.9,22.5,M,49.0,M,,0000*6E
$GPGGA,113054.000,4307.7659,N,00600.7117,E,1,09,0.9,22.2,M,49.0,M,,0000*6A
$GPGGA,113055.000,4307.7658,N,00600.7106,E,1,09,0.9,22.2,M,49.0,M,,0000*6A
$GPGGA,113056.000,4307.7659,N,00600.7104,E,1,09,0.9,21.8,M,49.0,M,,0000*63
$GPGGA,113057.000,4307.7659,N,00600.7104,E,1,09,0.9,22.1,M,49.0,M,,0000*68
$GPGGA,113058.000,4307.7659,N,00600.7104,E,1,09,0.9,22.5,M,49.0,M,,0000*63
$GPGGA,113059.000,4307.7659,N,00600.7105,E,1,09,0.9,22.7,M,49.0,M,,0000*61
$GPGGA,113100.000,4307.7659,N,00600.7106,E,1,09,0.9,22.8,M,49.0,M,,0000*60
$GPGGA,113101.000,4307.7659,N,00600.7107,E,1,09,0.9,22.9,M,49.0,M,,0000*61
$GPGGA,113102.000,4307.7659,N,00600.7107,E,1,09,0.9,23.1,M,49.0,M,,0000*6B
$GPGGA,113103.000,4307.7660,N,00600.7108,E,1,09,0.9,23.2,M,49.0,M,,0000*6C
$GPGGA,113104.000,4307.7660,N,00600.7108,E,1,09,0.9,23.3,M,49.0,M,,0000*6A
$GPGGA,113105.000,4307.7660,N,00600.7109,E,1,09,0.9,23.4,M,49.0,M,,0000*6D
$GPGGA,113106.000,4307.7660,N,00600.7109,E,1,09,0.9,23.5,M,49.0,M,,0000*6F
$GPGGA,113107.000,4307.7660,N,00600.7109,E,1,09,0.9,23.5,M,49.0,M,,0000*6E
$GPGGA,113108.000,4307.7660,N,00600.7109,E,1,09,0.9,23.6,M,49.0,M,,0000*62
$GPGGA,113109.000,4307.7660,N,00600.7109,E,1,09,0.9,23.7,M,49.0,M,,0000*62
$GPGGA,113110.000,4307.7660,N,00600.7110,E,1,09,0.9,23.8,M,49.0,M,,0000*6D
$GPGGA,113111.000,4307.7660,N,00600.7110,E,1,09,0.9,23.9,M,49.0,M,,0000*6D
$GPGGA,113112.000,4307.7660,N,00600.7110,E,1,09,0.9,23.9,M,49.0,M,,0000*6E
$GPGGA,113113.000,4307.7660,N,00600.7110,E,1,09,0.9,24.0,M,49.0,M,,0000*61
$GPGGA,113114.000,4307.7661,N,00600.7110,E,1,09,0.9,24.1,M,49.0,M,,0000*66
$GPGGA,113115.000,4307.7661,N,00600.7110,E,1,09,0.9,24.2,M,49.0,M,,0000*64
$GPGGA,113116.000,4307.7661,N,00600.7110,E,1,09,0.9,24.2,M,49.0,M,,0000*67
$GPGGA,113117.000,4307.7661,N,00600.7110,E,1,09,0.9,24.3,M,49.0,M,,0000*67
$GPGGA,113118.000,4307.7661,N,00600.7110,E,1,09,0.9,24.4,M,49.0,M,,0000*6F
$GPGGA,113119.000,4307.7661,N,00600.7110,E,1,09,0.9,24.5,M,49.0,M,,0000*6F
$GPGGA,113120.000,4307.7660,N,00600.7110,E,1,09,0.9,24.5,M,49.0,M,,0000*64
$GPGGA,113121.000,4307.7660,N,00600.7110,E,1,09,0.9,24.6,M,49.0,M,,0000*66
$GPGGA,113122.000,4307.7660,N,00600.7111,E,1,09,0.9,24.7,M,49.0,M,,0000*65
$GPGGA,113123.000,4307.7660,N,00600.7110,E,1,09,0.9,24.8,M,49.0,M,,0000*6A
$GPGGA,113124.000,4307.7660,N,00600.7110,E,1,09,0.9,24.9,M,49.0,M,,0000*6C
$GPGGA,113125.000,4307.7660,N,00600.7111,E,1,09,0.9,25.0,M,49.0,M,,0000*64
$GPGGA,113126.000,4307.7660,N,00600.7111,E,1,09,0.9,25.0,M,49.0,M,,0000*67
$GPGGA,113127.000,4307.7660,N,00600.7111,E,1,09,0.9,25.1,M,49.0,M,,0000*67
$GPGGA,113128.000,4307.7660,N,00600.7111,E,1,09,0.9,25.2,M,49.0,M,,0000*6B
$GPGGA,113129.000,4307.7660,N,00600.7111,E,1,09,0.9,25.2,M,49.0,M,,0000*6A
$GPGGA,113130.000,4307.7660,N,00600.7111,E,1,09,0.9,25.3,M,49.0,M,,0000*63
$GPGGA,113131.000,4307.7660,N,00600.7111,E,1,09,0.9,25.4,M,49.0,M,,0000*65
$GPGGA,113132.000,4307.7660,N,00600.7111,E,1,09,0.9,25.5,M,49.0,M,,0000*67
$GPGGA,113133.000,4307.7660,N,00600.7111,E,1,09,0.9,25.6,M,49.0,M,,0000*65
$GPGGA,113134.000,4307.7660,N,00600.7111,E,1,09,0.9,25.8,M,49.0,M,,0000*6C
$GPGGA,113135.000,4307.7660,N,00600.7111,E,1,09,0.9,25.9,M,49.0,M,,0000*6C
$GPGGA,113136.000,4307.7660,N,00600.7111,E,1,09,0.9,26.0,M,49.0,M,,0000*65
$GPGGA,113137.000,4307.7659,N,00600.7111,E,1,09,0.9,26.1,M,49.0,M,,0000*6F
$GPGGA,113138.000,4307.7659,N,00600.7111,E,1,09,0.9,26.1,M,49.0,M,,0000*60
$GPGGA,113139.000,4307.7659,N,00600.7111,E,1,09,0.9,26.2,M,49.0,M,,0000*62
$GPGGA,113140.000,4307.7659,N,00600.7111,E,1,09,0.9,26.3,M,49.0,M,,0000*6D
$GPGGA,113141.000,4307.7659,N,00600.7111,E,1,09,0.9,26.3,M,49.0,M,,0000*6C
$GPGGA,113142.000,4307.7659,N,00600.7111,E,1,09,0.9,26.4,M,49.0,M,,0000*68
$GPGGA,113143.000,4307.7659,N,00600.7112,E,1,09,0.9,26.4,M,49.0,M,,0000*6A
$GPGGA,113144.000,4307.7659,N,00600.7112,E,1,09,0.9,26.4,M,49.0,M,,0000*6D
$GPGGA,113145.000,4307.7659,N,00600.7112,E,1,09,0.9,26.4,M,49.0,M,,0000*6C
$GPGGA,113146.000,4307.7659,N,00600.7112,E,1,09,0.9,26.5,M,49.0,M,,0000*6E
$GPGGA,113147.000,4307.7659,N,00600.7112,E,1,09,0.9,26.5,M,49.0,M,,0000*6F
$GPGGA,113148.000,4307.7659,N,00600.7112,E,1,09,0.9,26.5,M,49.0,M,,0000*60
$GPGGA,113149.000,4307.7659,N,00600.7112,E,1,09,0.9,26.4,M,49.0,M,,0000*60
$GPGGA,113150.000,4307.7659,N,00600.7112,E,1,09,0.9,26.5,M,49.0,M,,0000*69
$GPGGA,113151.000,4307.7659,N,00600.7112,E,1,09,0.9,26.6,M,49.0,M,,0000*6B
$GPGGA,113152.000,4307.7659,N,00600.7112,E,1,09,0.9,26.6,M,49.0,M,,0000*68
$GPGGA,113153.000,4307.7659,N,00600.7112,E,1,09,0.9,26.6,M,49.0,M,,0000*69
$GPGGA,113154.000,4307.7659,N,00600.7112,E,1,09,0.9,26.6,M,49.0,M,,0000*6E
$GPGGA,113155.000,4307.7659,N,00600.7112,E,1,09,0.9,26.7,M,49.0,M,,0000*6E
$GPGGA,113156.000,4307.7659,N,00600.7112,E,1,09,0.9,26.7,M,49.0,M,,0000*6D
$GPGGA,113157.000,4307.7659,N,00600.7113,E,1,09,0.9,26.7,M,49.0,M,,0000*6D
$GPGGA,113158.000,4307.7659,N,00600.7113,E,1,09,0.9,26.7,M,49.0,M,,0000*62
$GPGGA,113159.000,4307.7658,N,00600.7113,E,1,09,0.9,26.7,M,49.0,M,,0000*62
$GPGGA,113200.000,4307.7658,N,00600.7113,E,1,09,0.9,26.8,M,49.0,M,,0000*62
$GPGGA,113201.000,4307.7658,N,00600.7113,E,1,09,0.9,26.8,M,49.0,M,,0000*63
$GPGGA,113202.000,4307.7658,N,00600.7113,E,1,09,0.9,26.8,M,49.0,M,,0000*60
$GPGGA,113203.000,4307.7658,N,00600.7113,E,1,09,0.9,26.9,M,49.0,M,,0000*60
$GPGGA,113204.000,4307.7658,N,00600.7113,E,1,09,0.9,26.9,M,49.0,M,,0000*67
$GPGGA,113205.000,4307.7658,N,00600.7114,E,1,09,0.9,26.9,M,49.0,M,,0000*61
$GPGGA,113206.000,4307.7657,N,00600.7114,E,1,09,0.9,26.9,M,49.0,M,,0000*6D
$GPGGA,113207.000,4307.7657,N,00600.7114,E,1,09,0.9,26.9,M,49.0,M,,0000*6C
$GPGGA,113208.000,4307.7657,N,00600.7114,E,1,09,0.9,26.9,M,49.0,M,,0000*63
$GPGGA,113209.000,4307.7657,N,00600.7112,E,1,09,0.9,26.9,M,49.0,M,,0000*64
$GPGGA,113210.000,4307.7657,N,00600.7104,E,1,09,0.9,26.8,M,49.0,M,,0000*6A
$GPGGA,113211.000,4307.7658,N,00600.7085,E,1,09,0.9,27.3,M,49.0,M,,0000*66
$GPGGA,113212.000,4307.7663,N,00600.7059,E,1,09,0.9,27.6,M,49.0,M,,0000*69
$GPGGA,113213.000,4307.7679,N,00600.7029,E,1,09,0.9,27.4,M,49.0,M,,0000*66
$GPGGA,113214.000,4307.7705,N,00600.7005,E,1,09,0.9,27.2,M,49.0,M,,0000*63
$GPGGA,113215.000,4307.7738,N,00600.6985,E,1,09,0.9,27.2,M,49.0,M,,0000*6C
$GPGGA,113216.000,4307.7777,N,00600.6963,E,1,08,0.9,27.2,M,49.0,M,,0000*6D
$GPGGA,113217.000,4307.7818,N,00600.6940,E,1,09,0.9,27.5,M,49.0,M,,0000*6D
$GPGGA,113218.000,4307.7863,N,00600.6914,E,1,09,0.9,27.7,M,49.0,M,,0000*6D
$GPGGA,113219.000,4307.7910,N,00600.6886,E,1,09,0.9,28.1,M,49.0,M,,0000*6A
$GPGGA,113220.000,4307.7963,N,00600.6858,E,1,09,0.9,28.7,M,49.0,M,,0000*61
$GPGGA,113221.000,4307.8019,N,00600.6832,E,1,08,1.0,29.2,M,49.0,M,,0000*6A
$GPGGA,113222.000,4307.8078,N,00600.6807,E,1,09,0.9,30.1,M,49.0,M,,0000*6A
$GPGGA,113223.000,4307.8139,N,00600.6780,E,1,09,0.9,31.2,M,49.0,M,,0000*6D
$GPGGA,113224.000,4307.8203,N,00600.6753,E,1,09,0.9,31.9,M,49.0,M,,0000*65
$GPGGA,113225.000,4307.8269,N,00600.6723,E,1,09,0.9,32.1,M,49.0,M,,0000*64
$GPGGA,113226.000,4307.8337,N,00600.6685,E,1,09,0.9,32.4,M,49.0,M,,0000*65
$GPGGA,113227.000,4307.8405,N,00600.6638,E,1,09,0.9,33.0,M,49.0,M,,0000*61
$GPGGA,113228.000,4307.8476,N,00600.6584,E,1,09,0.9,33.3,M,49.0,M,,0000*6D
$GPGGA,113229.000,4307.8547,N,00600.6525,E,1,09,0.9,33.6,M,49.0,M,,0000*61
$GPGGA,113230.000,4307.8625,N,00600.6467,E,1,09,0.9,34.7,M,49.0,M,,0000*6F
$GPGGA,113231.000,4307.8702,N,00600.6403,E,1,09,0.9,35.1,M,49.0,M,,0000*6F
$GPGGA,113232.000,4307.8778,N,00600.6331,E,1,09,0.9,35.2,M,49.0,M,,0000*64
$GPGGA,113233.000,4307.8851,N,00600.6248,E,1,09,0.9,35.7,M,49.0,M,,0000*6B
$GPGGA,113234.000,4307.8922,N,00600.6153,E,1,09,0.9,37.2,M,49.0,M,,0000*67
$GPGGA,113235.000,4307.8995,N,00600.6055,E,1,08,0.9,38.7,M,49.0,M,,0000*66
$GPGGA,113236.000,4307.9072,N,00600.5959,E,1,08,0.9,40.3,M,49.0,M,,0000*69
$GPGGA,113237.000,4307.9156,N,00600.5868,E,1,07,1.1,41.7,M,49.0,M,,0000*6F
$GPGGA,113238.000,4307.9243,N,00600.5785,E,1,08,0.9,43.0,M,49.0,M,,0000*68
$GPGGA,113239.000,4307.9330,N,00600.5710,E,1,09,0.9,43.7,M,49.0,M,,0000*66
$GPGGA,113240.000,4307.9410,N,00600.5640,E,1,09,0.9,44.2,M,49.0,M,,0000*6B
$GPGGA,113241.000,4307.9484,N,00600.5574,E,1,09,0.9,45.0,M,49.0,M,,0000*60
$GPGGA,113242.000,4307.9552,N,00600.5512,E,1,09,0.9,45.2,M,49.0,M,,0000*6B
$GPGGA,113243.000,4307.9616,N,00600.5457,E,1,09,0.9,45.3,M,49.0,M,,0000*68
$GPGGA,113244.000,4307.9677,N,00600.5412,E,1,08,1.0,45.3,M,49.0,M,,0000*60
$GPGGA,113245.000,4307.9736,N,00600.5381,E,1,08,1.0,45.4,M,49.0,M,,0000*6F
$GPGGA,113246.000,4307.9786,N,00600.5362,E,1,09,0.9,43.9,M,49.0,M,,0000*68
$GPGGA,113247.000,4307.9832,N,00600.5393,E,1,08,0.9,41.7,M,49.0,M,,0000*6A
$GPGGA,113248.000,4307.9872,N,00600.5459,E,1,08,1.0,42.7,M,49.0,M,,0000*6B
$GPGGA,113249.000,4307.9896,N,00600.5531,E,1,08,1.0,42.9,M,49.0,M,,0000*61
$GPGGA,113250.000,4307.9910,N,00600.5613,E,1,09,0.9,42.9,M,49.0,M,,0000*6C
$GPGGA,113251.000,4307.9912,N,00600.5691,E,1,09,0.9,43.0,M,49.0,M,,0000*6D
$GPGGA,113252.000,4307.9920,N,00600.5761,E,1,08,1.0,43.6,M,49.0,M,,0000*6E
$GPGGA,113253.000,4307.9933,N,00600.5825,E,1,09,0.9,45.8,M,49.0,M,,0000*63
$GPGGA,113254.000,4307.9945,N,00600.5871,E,1,08,0.9,46.6,M,49.0,M,,0000*68
$GPGGA,113255.000,4307.9965,N,00600.5904,E,1,08,0.9,48.3,M,49.0,M,,0000*63
$GPGGA,113256.000,4307.9996,N,00600.5909,E,1,07,0.9,48.6,M,49.0,M,,0000*6B
$GPGGA,113257.000,4308.0027,N,00600.5883,E,1,08,0.9,47.5,M,49.0,M,,0000*6F
$GPGGA,113258.000,4308.0049,N,00600.5849,E,1,08,0.9,47.1,M,49.0,M,,0000*6A
$GPGGA,113259.000,4308.0065,N,00600.5804,E,1,08,0.9,48.1,M,49.0,M,,0000*63
$GPGGA,113300.000,4308.0083,N,00600.5765,E,1,00,50.0,48.6,M,49.0,M,,0000*5D
$GPGGA,113301.000,4308.0081,N,00600.5722,E,1,08,0.9,49.3,M,49.0,M,,0000*6D
$GPGGA,113302.000,4308.0071,N,00600.5680,E,1,08,0.9,51.1,M,49.0,M,,0000*63
$GPGGA,113303.000,4308.0064,N,00600.5634,E,1,09,0.9,55.2,M,49.0,M,,0000*6F
$GPGGA,113304.000,4308.0055,N,00600.5580,E,1,09,0.9,59.6,M,49.0,M,,0000*6E
$GPGGA,113305.000,4308.0052,N,00600.5528,E,1,08,0.9,61.4,M,49.0,M,,0000*62
$GPGGA,113306.000,4308.0057,N,00600.5487,E,1,08,0.9,61.8,M,49.0,M,,0000*6C
$GPGGA,113307.000,4308.0085,N,00600.5469,E,1,08,0.9,64.4,M,49.0,M,,0000*6B
$GPGGA,113308.000,4308.0123,N,00600.5475,E,1,08,0.9,66.1,M,49.0,M,,0000*63
$GPGGA,113309.000,4308.0160,N,00600.5510,E,1,08,0.9,66.6,M,49.0,M,,0000*60
$GPGGA,113310.000,4308.0199,N,00600.5546,E,1,09,0.9,65.9,M,49.0,M,,0000*60
$GPGGA,113311.000,4308.0242,N,00600.5577,E,1,09,0.9,65.8,M,49.0,M,,0000*67
$GPGGA,113312.000,4308.0288,N,00600.5598,E,1,08,0.9,66.6,M,49.0,M,,0000*6F
$GPGGA,113313.000,4308.0340,N,00600.5612,E,1,08,0.9,66.5,M,49.0,M,,0000*69
$GPGGA,113314.000,4308.0397,N,00600.5603,E,1,09,0.9,67.2,M,49.0,M,,0000*63
$GPGGA,113315.000,4308.0462,N,00600.5579,E,1,09,0.9,68.8,M,49.0,M,,0000*64
$GPGGA,113316.000,4308.0529,N,00600.5556,E,1,09,0.9,69.3,M,49.0,M,,0000*6E
$GPGGA,113317.000,4308.0596,N,00600.5522,E,1,08,0.9,67.5,M,49.0,M,,0000*61
$GPGGA,113318.000,4308.0661,N,00600.5494,E,1,07,1.0,65.9,M,49.0,M,,0000*60
$GPGGA,113319.000,4308.0714,N,00600.5465,E,1,07,1.0,64.8,M,49.0,M,,0000*6C
$GPGGA,113320.000,4308.0770,N,00600.5437,E,1,08,0.9,64.9,M,49.0,M,,0000*65
$GPGGA,113321.000,4308.0823,N,00600.5404,E,1,08,0.9,64.1,M,49.0,M,,0000*65
$GPGGA,113322.000,4308.0878,N,00600.5362,E,1,08,0.9,63.8,M,49.0,M,,0000*61
$GPGGA,113323.000,4308.0931,N,00600.5318,E,1,07,0.9,63.3,M,49.0,M,,0000*65
$GPGGA,113324.000,4308.0974,N,00600.5264,E,1,08,1.0,62.9,M,49.0,M,,0000*65
$GPGGA,113325.000,4308.1017,N,00600.5207,E,1,08,1.0,61.0,M,49.0,M,,0000*66
$GPGGA,113326.000,4308.1058,N,00600.5144,E,1,09,0.9,59.8,M,49.0,M,,0000*60
$GPGGA,113327.000,4308.1103,N,00600.5079,E,1,09,0.9,57.5,M,49.0,M,,0000*62
$GPGGA,113328.000,4308.1146,N,00600.5007,E,1,08,0.9,57.1,M,49.0,M,,0000*60
$GPGGA,113329.000,4308.1186,N,00600.4932,E,1,08,0.9,56.9,M,49.0,M,,0000*6A
$GPGGA,113330.000,4308.1219,N,00600.4850,E,1,08,0.9,56.9,M,49.0,M,,0000*62
$GPGGA,113331.000,4308.1246,N,00600.4766,E,1,08,0.9,56.3,M,49.0,M,,0000*69
$GPGGA,113332.000,4308.1272,N,00600.4679,E,1,08,0.9,56.2,M,49.0,M,,0000*63
$GPGGA,113333.000,4308.1293,N,00600.4590,E,1,09,0.9,56.3,M,49.0,M,,0000*69
$GPGGA,113334.000,4308.1308,N,00600.4498,E,1,09,0.9,57.0,M,49.0,M,,0000*66
$GPGGA,113335.000,4308.1323,N,00600.4407,E,1,09,0.9,57.5,M,49.0,M,,0000*6D
$GPGGA,113336.000,4308.1340,N,00600.4320,E,1,09,0.9,58.0,M,49.0,M,,0000*63
$GPGGA,113337.000,4308.1357,N,00600.4237,E,1,09,0.9,58.4,M,49.0,M,,0000*67
$GPGGA,113338.000,4308.1376,N,00600.4158,E,1,08,1.0,58.5,M,49.0,M,,0000*69
$GPGGA,113339.000,4308.1395,N,00600.4084,E,1,08,1.0,58.5,M,49.0,M,,0000*65
$GPGGA,113340.000,4308.1414,N,00600.4012,E,1,09,0.9,58.6,M,49.0,M,,0000*60
$GPGGA,113341.000,4308.1432,N,00600.3940,E,1,09,0.9,58.7,M,49.0,M,,0000*6D
$GPGGA,113342.000,4308.1450,N,00600.3869,E,1,09,0.9,58.7,M,49.0,M,,0000*60
$GPGGA,113343.000,4308.1468,N,00600.3801,E,1,09,0.9,58.6,M,49.0,M,,0000*65
$GPGGA,113344.000,4308.1484,N,00600.3733,E,1,09,0.9,58.3,M,49.0,M,,0000*6B
$GPGGA,113345.000,4308.1500,N,00600.3663,E,1,09,0.9,58.2,M,49.0,M,,0000*62
$GPGGA,113346.000,4308.1518,N,00600.3589,E,1,09,0.9,58.0,M,49.0,M,,0000*6D
$GPGGA,113347.000,4308.1535,N,00600.3512,E,1,09,0.9,57.9,M,49.0,M,,0000*67
$GPGGA,113348.000,4308.1554,N,00600.3437,E,1,09,0.9,57.6,M,49.0,M,,0000*66
$GPGGA,113349.000,4308.1573,N,00600.3361,E,1,09,0.9,57.4,M,49.0,M,,0000*64
$GPGGA,113350.000,4308.1593,N,00600.3282,E,1,09,0.9,57.5,M,49.0,M,,0000*6F
$GPGGA,113351.000,4308.1614,N,00600.3199,E,1,09,0.9,56.5,M,49.0,M,,0000*6A
$GPGGA,113352.000,4308.1634,N,00600.3115,E,1,09,0.9,55.2,M,49.0,M,,0000*6B
$GPGGA,113353.000,4308.1651,N,00600.3028,E,1,08,0.9,55.0,M,49.0,M,,0000*65
$GPGGA,113354.000,4308.1671,N,00600.2936,E,1,08,0.9,55.3,M,49.0,M,,0000*64
$GPGGA,113355.000,4308.1693,N,00600.2840,E,1,08,0.9,55.8,M,49.0,M,,0000*62
$GPGGA,113356.000,4308.1717,N,00600.2741,E,1,08,0.9,56.4,M,49.0,M,,0000*6D
$GPGGA,113357.000,4308.1742,N,00600.2641,E,1,08,0.9,56.6,M,49.0,M,,0000*6F
$GPGGA,113358.000,4308.1766,N,00600.2539,E,1,08,0.9,56.8,M,49.0,M,,0000*64
$GPGGA,113359.000,4308.1789,N,00600.2437,E,1,09,0.9,57.3,M,49.0,M,,0000*60
$GPGGA,113400.000,4308.1811,N,00600.2336,E,1,08,0.9,57.2,M,49.0,M,,0000*63
$GPGGA,113401.000,4308.1831,N,00600.2239,E,1,08,0.9,56.6,M,49.0,M,,0000*6B
$GPGGA,113402.000,4308.1849,N,00600.2145,E,1,09,0.9,56.5,M,49.0,M,,0000*6D
$GPGGA,113403.000,4308.1868,N,00600.2059,E,1,09,0.9,56.0,M,49.0,M,,0000*66
$GPGGA,113404.000,4308.1885,N,00600.1984,E,1,09,0.9,55.5,M,49.0,M,,0000*6E
$GPGGA,113405.000,4308.1902,N,00600.1918,E,1,09,0.9,55.3,M,49.0,M,,0000*62
$GPGGA,113406.000,4308.1921,N,00600.1861,E,1,09,0.9,55.6,M,49.0,M,,0000*6A
$GPGGA,113407.000,4308.1944,N,00600.1819,E,1,08,1.0,55.0,M,49.0,M,,0000*68
$GPGGA,113408.000,4308.1963,N,00600.1791,E,1,09,0.9,54.8,M,49.0,M,,0000*6D
$GPGGA,113409.000,4308.1975,N,00600.1783,E,1,07,1.0,54.5,M,49.0,M,,0000*63
$GPGGA,113410.000,4308.1972,N,00600.1788,E,1,08,1.0,56.4,M,49.0,M,,0000*6B
$GPGGA,113411.000,4308.1973,N,00600.1790,E,1,08,0.9,56.5,M,49.0,M,,0000*6B
$GPGGA,113412.000,4308.1978,N,00600.1790,E,1,08,0.9,56.3,M,49.0,M,,0000*65
$GPGGA,113413.000,4308.1988,N,00600.1789,E,1,09,0.9,56.5,M,49.0,M,,0000*64
$GPGGA,113414.000,4308.2007,N,00600.1785,E,1,09,0.9,56.5,M,49.0,M,,0000*62
$GPGGA,113415.000,4308.2027,N,00600.1784,E,1,08,0.9,56.0,M,49.0,M,,0000*64
$GPGGA,113416.000,4308.2049,N,00600.1788,E,1,08,1.0,56.0,M,49.0,M,,0000*6B
$GPGGA,113417.000,4308.2064,N,00600.1794,E,1,09,0.9,56.4,M,49.0,M,,0000*65
$GPGGA,113418.000,4308.2076,N,00600.1801,E,1,07,0.9,56.9,M,49.0,M,,0000*69
$GPGGA,113419.000,4308.2082,N,00600.1806,E,1,08,0.9,57.4,M,49.0,M,,0000*67
$GPGGA,113420.000,4308.2086,N,00600.1809,E,1,08,0.9,58.2,M,49.0,M,,0000*6F
$GPGGA,113421.000,4308.2087,N,00600.1812,E,1,08,0.9,58.8,M,49.0,M,,0000*6F
$GPGGA,113422.000,4308.2084,N,00600.1814,E,1,08,0.9,58.6,M,49.0,M,,0000*67
$GPGGA,113423.000,4308.2082,N,00600.1816,E,1,08,0.9,58.6,M,49.0,M,,0000*62
$GPGGA,113424.000,4308.2083,N,00600.1818,E,1,08,0.9,59.1,M,49.0,M,,0000*6C
$GPGGA,113425.000,4308.2093,N,00600.1829,E,1,07,1.1,58.4,M,49.0,M,,0000*6C
$GPGGA,113426.000,4308.2114,N,00600.1851,E,1,08,1.0,57.5,M,49.0,M,,0000*6E
$GPGGA,113427.000,4308.2143,N,00600.1890,E,1,08,0.9,55.9,M,49.0,M,,0000*66
$GPGGA,113428.000,4308.2176,N,00600.1938,E,1,09,0.9,54.3,M,49.0,M,,0000*66
$GPGGA,113429.000,4308.2201,N,00600.1999,E,1,08,1.0,53.5,M,49.0,M,,0000*67
$GPGGA,113430.000,4308.2212,N,00600.2067,E,1,09,0.9,52.7,M,49.0,M,,0000*6C
$GPGGA,113431.000,4308.2212,N,00600.2150,E,1,08,0.9,52.6,M,49.0,M,,0000*68
$GPGGA,113432.000,4308.2209,N,00600.2263,E,1,07,1.1,53.7,M,49.0,M,,0000*64
$GPGGA,113433.000,4308.2209,N,00600.2369,E,1,07,1.1,53.8,M,49.0,M,,0000*61
$GPGGA,113434.000,4308.2210,N,00600.2484,E,1,08,1.0,53.8,M,49.0,M,,0000*64
$GPGGA,113435.000,4308.2215,N,00600.2601,E,1,09,0.9,54.3,M,49.0,M,,0000*6A
$GPGGA,113436.000,4308.2225,N,00600.2722,E,1,09,0.9,54.1,M,49.0,M,,0000*68
$GPGGA,113437.000,4308.2236,N,00600.2847,E,1,09,0.9,53.9,M,49.0,M,,0000*68
$GPGGA,113438.000,4308.2249,N,00600.2977,E,1,09,0.9,53.7,M,49.0,M,,0000*63
$GPGGA,113439.000,4308.2261,N,00600.3112,E,1,09,0.9,53.7,M,49.0,M,,0000*62
$GPGGA,113440.000,4308.2275,N,00600.3248,E,1,08,1.0,52.9,M,49.0,M,,0000*63
$GPGGA,113441.000,4308.2290,N,00600.3386,E,1,08,1.0,52.4,M,49.0,M,,0000*67
$GPGGA,113442.000,4308.2304,N,00600.3521,E,1,08,1.0,51.6,M,49.0,M,,0000*62
$GPGGA,113443.000,4308.2317,N,00600.3653,E,1,08,1.0,50.9,M,49.0,M,,0000*69
$GPGGA,113444.000,4308.2329,N,00600.3781,E,1,09,0.9,50.3,M,49.0,M,,0000*6E
$GPGGA,113445.000,4308.2340,N,00600.3906,E,1,09,0.9,50.0,M,49.0,M,,0000*62
$GPGGA,113446.000,4308.2352,N,00600.4029,E,1,09,0.9,49.6,M,49.0,M,,0000*6F
$GPGGA,113447.000,4308.2362,N,00600.4151,E,1,09,0.9,49.2,M,49.0,M,,0000*67
$GPGGA,113448.000,4308.2373,N,00600.4270,E,1,08,1.0,48.9,M,49.0,M,,0000*6B
$GPGGA,113449.000,4308.2384,N,00600.4385,E,1,08,1.0,48.6,M,49.0,M,,0000*66
$GPGGA,113450.000,4308.2394,N,00600.4498,E,1,08,1.0,48.3,M,49.0,M,,0000*61
$GPGGA,113451.000,4308.2404,N,00600.4607,E,1,08,1.0,48.0,M,49.0,M,,0000*69
$GPGGA,113452.000,4308.2414,N,00600.4714,E,1,08,1.0,47.8,M,49.0,M,,0000*6F
$GPGGA,113453.000,4308.2425,N,00600.4818,E,1,08,1.0,47.5,M,49.0,M,,0000*62
$GPGGA,113454.000,4308.2436,N,00600.4916,E,1,09,0.9,47.1,M,49.0,M,,0000*65
$GPGGA,113455.000,4308.2448,N,00600.5005,E,1,09,0.9,47.0,M,49.0,M,,0000*66
$GPGGA,113456.000,4308.2460,N,00600.5075,E,1,09,0.9,47.8,M,49.0,M,,0000*60
$GPGGA,113457.000,4308.2471,N,00600.5128,E,1,09,0.9,48.1,M,49.0,M,,0000*6E
$GPGGA,113458.000,4308.2482,N,00600.5169,E,1,09,0.9,48.9,M,49.0,M,,0000*60
$GPGGA,113459.000,4308.2491,N,00600.5199,E,1,09,0.9,49.6,M,49.0,M,,0000*62
$GPGGA,113500.000,4308.2497,N,00600.5219,E,1,09,0.9,50.1,M,49.0,M,,0000*6D
$GPGGA,113501.000,4308.2501,N,00600.5243,E,1,09,0.9,49.7,M,49.0,M,,0000*63
$GPGGA,113502.000,4308.2499,N,00600.5273,E,1,09,0.9,48.7,M,49.0,M,,0000*62
$GPGGA,113503.000,4308.2499,N,00600.5316,E,1,09,0.9,48.4,M,49.0,M,,0000*62
$GPGGA,113504.000,4308.2503,N,00600.5362,E,1,08,0.9,47.9,M,49.0,M,,0000*67
$GPGGA,113505.000,4308.2511,N,00600.5414,E,1,09,0.9,47.8,M,49.0,M,,0000*63
$GPGGA,113506.000,4308.2515,N,00600.5473,E,1,08,1.0,47.3,M,49.0,M,,0000*67
$GPGGA,113507.000,4308.2514,N,00600.5538,E,1,09,0.9,46.9,M,49.0,M,,0000*6B
$GPGGA,113508.000,4308.2511,N,00600.5609,E,1,09,0.9,46.5,M,49.0,M,,0000*6C
$GPGGA,113509.000,4308.2510,N,00600.5683,E,1,09,0.9,46.3,M,49.0,M,,0000*68
$GPGGA,113510.000,4308.2512,N,00600.5753,E,1,09,0.9,45.5,M,49.0,M,,0000*6B
$GPGGA,113511.000,4308.2517,N,00600.5825,E,1,09,0.9,45.0,M,49.0,M,,0000*64
$GPGGA,113512.000,4308.2522,N,00600.5900,E,1,09,0.9,44.8,M,49.0,M,,0000*6E
$GPGGA,113513.000,4308.2528,N,00600.5976,E,1,09,0.9,44.5,M,49.0,M,,0000*69
$GPGGA,113514.000,4308.2534,N,00600.6056,E,1,09,0.9,44.2,M,49.0,M,,0000*6C
$GPGGA,113515.000,4308.2542,N,00600.6145,E,1,09,0.9,44.0,M,49.0,M,,0000*6D
$GPGGA,113516.000,4308.2550,N,00600.6237,E,1,08,1.0,43.7,M,49.0,M,,0000*62
$GPGGA,113517.000,4308.2559,N,00600.6335,E,1,08,1.0,43.5,M,49.0,M,,0000*6B
$GPGGA,113518.000,4308.2568,N,00600.6438,E,1,08,1.0,43.3,M,49.0,M,,0000*6A
$GPGGA,113519.000,4308.2576,N,00600.6544,E,1,08,1.0,43.0,M,49.0,M,,0000*6D
$GPGGA,113520.000,4308.2585,N,00600.6649,E,1,08,1.0,42.8,M,49.0,M,,0000*6C
$GPGGA,113521.000,4308.2594,N,00600.6750,E,1,08,1.0,42.6,M,49.0,M,,0000*6A
$GPGGA,113522.000,4308.2602,N,00600.6852,E,1,08,1.0,42.3,M,49.0,M,,0000*6D
$GPGGA,113523.000,4308.2610,N,00600.6956,E,1,08,1.0,42.1,M,49.0,M,,0000*68
$GPGGA,113524.000,4308.2617,N,00600.7065,E,1,08,1.0,41.9,M,49.0,M,,0000*6B
$GPGGA,113525.000,4308.2623,N,00600.7179,E,1,07,1.6,41.6,M,49.0,M,,0000*67
$GPGGA,113526.000,4308.2628,N,00600.7292,E,1,08,1.0,41.5,M,49.0,M,,0000*63
$GPGGA,113527.000,4308.2634,N,00600.7403,E,1,08,1.0,41.7,M,49.0,M,,0000*63
$GPGGA,113528.000,4308.2638,N,00600.7514,E,1,08,1.0,41.3,M,49.0,M,,0000*63
$GPGGA,113529.000,4308.2641,N,00600.7627,E,1,07,1.1,40.8,M,49.0,M,,0000*6B
$GPGGA,113530.000,4308.2644,N,00600.7739,E,1,07,1.1,40.2,M,49.0,M,,0000*62
$GPGGA,113531.000,4308.2646,N,00600.7849,E,1,07,1.1,39.8,M,49.0,M,,0000*6D
$GPGGA,113532.000,4308.2648,N,00600.7955,E,1,08,0.9,38.8,M,49.0,M,,0000*6B
$GPGGA,113533.000,4308.2651,N,00600.8060,E,1,08,0.9,38.3,M,49.0,M,,0000*69
$GPGGA,113534.000,4308.2654,N,00600.8169,E,1,08,0.9,38.7,M,49.0,M,,0000*67
$GPGGA,113535.000,4308.2656,N,00600.8274,E,1,08,0.9,38.1,M,49.0,M,,0000*6D
$GPGGA,113536.000,4308.2658,N,00600.8381,E,1,09,0.9,37.7,M,49.0,M,,0000*63
$GPGGA,113537.000,4308.2661,N,00600.8489,E,1,08,1.0,37.3,M,49.0,M,,0000*6A
$GPGGA,113538.000,4308.2664,N,00600.8594,E,1,08,1.0,37.1,M,49.0,M,,0000*6F
$GPGGA,113539.000,4308.2667,N,00600.8695,E,1,08,1.0,36.7,M,49.0,M,,0000*68
$GPGGA,113540.000,4308.2671,N,00600.8794,E,1,08,1.0,36.5,M,49.0,M,,0000*63
$GPGGA,113541.000,4308.2676,N,00600.8891,E,1,08,1.0,36.3,M,49.0,M,,0000*69
$GPGGA,113542.000,4308.2681,N,00600.8984,E,1,08,1.0,36.0,M,49.0,M,,0000*64
$GPGGA,113543.000,4308.2686,N,00600.9073,E,1,08,1.0,35.8,M,49.0,M,,0000*69
$GPGGA,113544.000,4308.2691,N,00600.9159,E,1,08,1.0,35.6,M,49.0,M,,0000*6F
$GPGGA,113545.000,4308.2697,N,00600.9242,E,1,09,0.9,35.5,M,49.0,M,,0000*6B
$GPGGA,113546.000,4308.2704,N,00600.9323,E,1,09,0.9,35.3,M,49.0,M,,0000*63
$GPGGA,113547.000,4308.2711,N,00600.9405,E,1,09,0.9,34.9,M,49.0,M,,0000*6E
$GPGGA,113548.000,4308.2720,N,00600.9489,E,1,09,0.9,34.4,M,49.0,M,,0000*6A
$GPGGA,113549.000,4308.2735,N,00600.9568,E,1,09,0.9,35.6,M,49.0,M,,0000*62
$GPGGA,113550.000,4308.2750,N,00600.9650,E,1,09,0.9,36.9,M,49.0,M,,0000*6D
$GPGGA,113551.000,4308.2764,N,00600.9730,E,1,09,0.9,37.8,M,49.0,M,,0000*6C
$GPGGA,113552.000,4308.2779,N,00600.9805,E,1,09,0.9,38.0,M,49.0,M,,0000*6D
$GPGGA,113553.000,4308.2796,N,00600.9868,E,1,09,0.9,38.5,M,49.0,M,,0000*63
$GPGGA,113554.000,4308.2815,N,00600.9920,E,1,09,0.9,38.9,M,49.0,M,,0000*61
$GPGGA,113555.000,4308.2829,N,00600.9956,E,1,09,0.9,38.9,M,49.0,M,,0000*6E
$GPGGA,113556.000,4308.2837,N,00600.9972,E,1,09,0.9,38.9,M,49.0,M,,0000*64
$GPGGA,113557.000,4308.2840,N,00600.9974,E,1,09,0.9,39.1,M,49.0,M,,0000*6A
$GPGGA,113558.000,4308.2840,N,00600.9970,E,1,09,0.9,39.3,M,49.0,M,,0000*63
$GPGGA,113559.000,4308.2841,N,00600.9967,E,1,09,0.9,39.3,M,49.0,M,,0000*65
$GPGGA,113600.000,4308.2841,N,00600.9964,E,1,09,0.9,39.2,M,49.0,M,,0000*68
$GPGGA,113601.000,4308.2842,N,00600.9967,E,1,09,0.9,39.1,M,49.0,M,,0000*6A
$GPGGA,113602.000,4308.2846,N,00600.9982,E,1,09,0.9,38.9,M,49.0,M,,0000*6F
$GPGGA,113603.000,4308.2846,N,00601.0011,E,1,09,0.9,38.3,M,49.0,M,,0000*6F
$GPGGA,113604.000,4308.2838,N,00601.0056,E,1,07,1.1,37.2,M,49.0,M,,0000*6B
$GPGGA,113605.000,4308.2830,N,00601.0108,E,1,09,0.9,35.8,M,49.0,M,,0000*67
$GPGGA,113606.000,4308.2827,N,00601.0180,E,1,09,0.9,36.1,M,49.0,M,,0000*68
$GPGGA,113607.000,4308.2834,N,00601.0250,E,1,09,0.9,35.7,M,49.0,M,,0000*60
$GPGGA,113608.000,4308.2854,N,00601.0314,E,1,09,0.9,35.7,M,49.0,M,,0000*68
$GPGGA,113609.000,4308.2883,N,00601.0367,E,1,09,0.9,35.7,M,49.0,M,,0000*67
$GPGGA,113610.000,4308.2917,N,00601.0406,E,1,09,0.9,35.4,M,49.0,M,,0000*60
$GPGGA,113611.000,4308.2957,N,00601.0429,E,1,09,0.9,35.5,M,49.0,M,,0000*69
$GPGGA,113612.000,4308.3002,N,00601.0431,E,1,09,0.9,35.4,M,49.0,M,,0000*6A
$GPGGA,113613.000,4308.3047,N,00601.0422,E,1,09,0.9,35.0,M,49.0,M,,0000*6C
$GPGGA,113614.000,4308.3094,N,00601.0416,E,1,09,0.9,34.4,M,49.0,M,,0000*67
$GPGGA,113615.000,4308.3137,N,00601.0427,E,1,09,0.9,34.4,M,49.0,M,,0000*6C
$GPGGA,113616.000,4308.3178,N,00601.0459,E,1,09,0.9,34.1,M,49.0,M,,0000*68
$GPGGA,113617.000,4308.3213,N,00601.0509,E,1,09,0.9,35.0,M,49.0,M,,0000*63
$GPGGA,113618.000,4308.3248,N,00601.0572,E,1,09,0.9,35.3,M,49.0,M,,0000*6D
$GPGGA,113619.000,4308.3291,N,00601.0632,E,1,08,1.0,35.4,M,49.0,M,,0000*61
$GPGGA,113620.000,4308.3348,N,00601.0679,E,1,08,1.0,36.5,M,49.0,M,,0000*63
$GPGGA,113621.000,4308.3414,N,00601.0712,E,1,08,1.0,37.2,M,49.0,M,,0000*66
$GPGGA,113622.000,4308.3492,N,00601.0728,E,1,09,0.9,38.6,M,49.0,M,,0000*60
$GPGGA,113623.000,4308.3576,N,00601.0711,E,1,09,0.9,40.1,M,49.0,M,,0000*68
$GPGGA,113624.000,4308.3659,N,00601.0692,E,1,09,0.9,40.5,M,49.0,M,,0000*6F
$GPGGA,113625.000,4308.3732,N,00601.0675,E,1,08,1.0,42.4,M,49.0,M,,0000*61
$GPGGA,113626.000,4308.3803,N,00601.0664,E,1,07,1.2,43.9,M,49.0,M,,0000*6E
$GPGGA,113627.000,4308.3866,N,00601.0654,E,1,08,1.0,44.6,M,49.0,M,,0000*6A
$GPGGA,113628.000,4308.3918,N,00601.0648,E,1,08,1.0,45.2,M,49.0,M,,0000*65
$GPGGA,113629.000,4308.3953,N,00601.0645,E,1,09,0.9,45.7,M,49.0,M,,0000*6A
$GPGGA,113630.000,4308.3962,N,00601.0638,E,1,09,0.9,46.5,M,49.0,M,,0000*6B
$GPGGA,113631.000,4308.3960,N,00601.0635,E,1,09,0.9,46.6,M,49.0,M,,0000*66
$GPGGA,113632.000,4308.3956,N,00601.0633,E,1,09,0.9,46.3,M,49.0,M,,0000*63
$GPGGA,113633.000,4308.3957,N,00601.0632,E,1,09,0.9,46.8,M,49.0,M,,0000*69
$GPGGA,113634.000,4308.3959,N,00601.0632,E,1,09,0.9,46.5,M,49.0,M,,0000*6D
$GPGGA,113635.000,4308.3960,N,00601.0630,E,1,09,0.9,46.1,M,49.0,M,,0000*60
$GPGGA,113636.000,4308.3958,N,00601.0628,E,1,09,0.9,46.0,M,49.0,M,,0000*60
$GPGGA,113637.000,4308.3957,N,00601.0627,E,1,09,0.9,45.6,M,49.0,M,,0000*64
$GPGGA,113638.000,4308.3954,N,00601.0632,E,1,09,0.9,46.2,M,49.0,M,,0000*6B
$GPGGA,113639.000,4308.3951,N,00601.0635,E,1,09,0.9,46.5,M,49.0,M,,0000*6F
$GPGGA,113640.000,4308.3950,N,00601.0638,E,1,09,0.9,46.6,M,49.0,M,,0000*6E
$GPGGA,113641.000,4308.3948,N,00601.0640,E,1,09,0.9,46.2,M,49.0,M,,0000*6D
$GPGGA,113642.000,4308.3944,N,00601.0643,E,1,09,0.9,45.3,M,49.0,M,,0000*63
$GPGGA,113643.000,4308.3944,N,00601.0644,E,1,09,0.9,45.7,M,49.0,M,,0000*61
$GPGGA,113644.000,4308.3944,N,00601.0645,E,1,09,0.9,46.0,M,49.0,M,,0000*63
$GPGGA,113645.000,4308.3941,N,00601.0648,E,1,09,0.9,45.4,M,49.0,M,,0000*6D
$GPGGA,113646.000,4308.3945,N,00601.0651,E,1,09,0.9,45.2,M,49.0,M,,0000*64
$GPGGA,113647.000,4308.3959,N,00601.0663,E,1,09,0.9,46.2,M,49.0,M,,0000*6A
$GPGGA,113648.000,4308.3981,N,00601.0680,E,1,09,0.9,45.6,M,49.0,M,,0000*6A
$GPGGA,113649.000,4308.3998,N,00601.0710,E,1,09,0.9,45.3,M,49.0,M,,0000*6E
$GPGGA,113650.000,4308.4005,N,00601.0743,E,1,09,0.9,44.5,M,49.0,M,,0000*6D
$GPGGA,113651.000,4308.4002,N,00601.0777,E,1,09,0.9,43.2,M,49.0,M,,0000*6C
$GPGGA,113652.000,4308.3988,N,00601.0818,E,1,09,0.9,41.8,M,49.0,M,,0000*6D
$GPGGA,113653.000,4308.3969,N,00601.0867,E,1,09,0.9,40.6,M,49.0,M,,0000*64
$GPGGA,113654.000,4308.3945,N,00601.0925,E,1,09,0.9,40.3,M,49.0,M,,0000*6F
$GPGGA,113655.000,4308.3922,N,00601.0985,E,1,09,0.9,39.9,M,49.0,M,,0000*61
$GPGGA,113656.000,4308.3900,N,00601.1045,E,1,09,0.9,39.3,M,49.0,M,,0000*6C
$GPGGA,113657.000,4308.3880,N,00601.1105,E,1,09,0.9,38.6,M,49.0,M,,0000*65
$GPGGA,113658.000,4308.3864,N,00601.1165,E,1,09,0.9,38.1,M,49.0,M,,0000*61
$GPGGA,113659.000,4308.3853,N,00601.1234,E,1,08,1.1,37.7,M,49.0,M,,0000*62
$GPGGA,113700.000,4308.3848,N,00601.1318,E,1,08,1.1,37.8,M,49.0,M,,0000*65
$GPGGA,113701.000,4308.3840,N,00601.1400,E,1,08,1.1,37.8,M,49.0,M,,0000*62
$GPGGA,113702.000,4308.3832,N,00601.1484,E,1,07,1.3,37.1,M,49.0,M,,0000*6C
$GPGGA,113703.000,4308.3825,N,00601.1569,E,1,08,1.0,37.0,M,49.0,M,,0000*64
$GPGGA,113704.000,4308.3819,N,00601.1653,E,1,09,0.9,36.9,M,49.0,M,,0000*67
$GPGGA,113705.000,4308.3811,N,00601.1733,E,1,08,1.1,36.6,M,49.0,M,,0000*6E
$GPGGA,113706.000,4308.3804,N,00601.1807,E,1,08,1.1,36.4,M,49.0,M,,0000*63
$GPGGA,113707.000,4308.3796,N,00601.1876,E,1,08,1.1,36.1,M,49.0,M,,0000*65
$GPGGA,113708.000,4308.3789,N,00601.1936,E,1,08,1.1,35.8,M,49.0,M,,0000*6B
$GPGGA,113709.000,4308.3778,N,00601.1985,E,1,09,0.9,36.1,M,49.0,M,,0000*6E
$GPGGA,113710.000,4308.3765,N,00601.2020,E,1,09,0.9,37.5,M,49.0,M,,0000*6A
$GPGGA,113711.000,4308.3754,N,00601.2040,E,1,09,0.9,39.2,M,49.0,M,,0000*66
$GPGGA,113712.000,4308.3748,N,00601.2047,E,1,07,1.5,39.7,M,49.0,M,,0000*69
$GPGGA,113713.000,4308.3747,N,00601.2044,E,1,07,1.5,40.1,M,49.0,M,,0000*6C
$GPGGA,113714.000,4308.3748,N,00601.2040,E,1,07,1.5,40.2,M,49.0,M,,0000*63
$GPGGA,113715.000,4308.3750,N,00601.2037,E,1,07,1.5,40.5,M,49.0,M,,0000*6C
$GPGGA,113716.000,4308.3751,N,00601.2035,E,1,07,1.5,40.6,M,49.0,M,,0000*6F
$GPGGA,113717.000,4308.3751,N,00601.2036,E,1,08,1.1,41.0,M,49.0,M,,0000*61
$GPGGA,113718.000,4308.3746,N,00601.2043,E,1,09,0.9,44.0,M,49.0,M,,0000*67
$GPGGA,113719.000,4308.3738,N,00601.2060,E,1,09,0.9,44.7,M,49.0,M,,0000*69
$GPGGA,113720.000,4308.3724,N,00601.2083,E,1,09,0.9,45.1,M,49.0,M,,0000*64
$GPGGA,113721.000,4308.3704,N,00601.2108,E,1,08,0.9,44.1,M,49.0,M,,0000*65
$GPGGA,113722.000,4308.3684,N,00601.2134,E,1,08,0.9,42.7,M,49.0,M,,0000*60
$GPGGA,113723.000,4308.3667,N,00601.2160,E,1,08,0.9,42.6,M,49.0,M,,0000*6C
$GPGGA,113724.000,4308.3648,N,00601.2184,E,1,08,0.9,41.7,M,49.0,M,,0000*6E
$GPGGA,113725.000,4308.3630,N,00601.2205,E,1,08,0.9,41.2,M,49.0,M,,0000*6F
$GPGGA,113726.000,4308.3612,N,00601.2226,E,1,09,0.9,40.4,M,49.0,M,,0000*6B
$GPGGA,113727.000,4308.3593,N,00601.2248,E,1,09,0.9,39.8,M,49.0,M,,0000*6A
$GPGGA,113728.000,4308.3573,N,00601.2270,E,1,09,0.9,39.6,M,49.0,M,,0000*6E
$GPGGA,113729.000,4308.3554,N,00601.2293,E,1,09,0.9,39.3,M,49.0,M,,0000*62
$GPGGA,113730.000,4308.3537,N,00601.2318,E,1,09,0.9,39.3,M,49.0,M,,0000*6D
$GPGGA,113731.000,4308.3520,N,00601.2346,E,1,09,0.9,39.3,M,49.0,M,,0000*61
$GPGGA,113732.000,4308.3501,N,00601.2379,E,1,09,0.9,40.0,M,49.0,M,,0000*60
$GPGGA,113733.000,4308.3483,N,00601.2418,E,1,09,0.9,40.1,M,49.0,M,,0000*6B
$GPGGA,113734.000,4308.3463,N,00601.2463,E,1,09,0.9,39.9,M,49.0,M,,0000*68
$GPGGA,113735.000,4308.3443,N,00601.2511,E,1,09,0.9,39.6,M,49.0,M,,0000*60
$GPGGA,113736.000,4308.3421,N,00601.2557,E,1,09,0.9,39.4,M,49.0,M,,0000*67
$GPGGA,113737.000,4308.3400,N,00601.2600,E,1,09,0.9,39.0,M,49.0,M,,0000*60
$GPGGA,113738.000,4308.3382,N,00601.2637,E,1,09,0.9,38.4,M,49.0,M,,0000*63
$GPGGA,113739.000,4308.3369,N,00601.2664,E,1,09,0.9,38.3,M,49.0,M,,0000*66
$GPGGA,113740.000,4308.3360,N,00601.2681,E,1,09,0.9,38.2,M,49.0,M,,0000*6B
$GPGGA,113741.000,4308.3354,N,00601.2692,E,1,09,0.9,38.2,M,49.0,M,,0000*6F
$GPGGA,113742.000,4308.3352,N,00601.2699,E,1,09,0.9,38.5,M,49.0,M,,0000*66
$GPGGA,113743.000,4308.3351,N,00601.2702,E,1,09,0.9,38.7,M,49.0,M,,0000*65
